county,state,fips,zone,lat,lng,ne_lat,ne_lng,sw_lat,sw_lng
Autauga,AL,001001,Central Time (US & Canada),32.5349,-86.6428,32.708213,-86.4111719,32.3075739,-86.9212369
Baldwin,AL,001003,Central Time (US & Canada),30.9471,-87.7615,31.319017,-87.3866281,30.221516,-88.02907429999999
Barbour,AL,001005,Central Time (US & Canada),31.8696,-85.3932,32.148251,-85.0549585,31.617565,-85.7484329
Bibb,AL,001007,Central Time (US & Canada),32.9986,-87.1264,33.246926,-86.8760229,32.831522,-87.421989
Blount,AL,001009,Central Time (US & Canada),33.9809,-86.5674,34.260483,-86.3034979,33.7651709,-86.963358
Bullock,AL,001011,Central Time (US & Canada),32.1005,-85.7161,32.305289,-85.4100419,31.88027499999999,-85.999258
Butler,AL,001013,Central Time (US & Canada),31.7524,-86.6803,32.126492,-88.183453,32.0678349,-88.255465
Calhoun,AL,001015,Central Time (US & Canada),33.7714,-85.8261,33.96846,-85.529432,33.5559299,-86.14522029999999
Chambers,AL,001017,Central Time (US & Canada),32.9144,-85.392,33.109038,-85.1221889,32.72853,-85.5936529
Cherokee,AL,001019,Central Time (US & Canada),34.176,-85.6038,34.7714689,-87.953328,34.745401,-87.9841989
Chilton,AL,001021,Central Time (US & Canada),32.8479,-86.7188,33.07188,-86.373994,32.660117,-87.0191569
Choctaw,AL,001023,Central Time (US & Canada),32.0192,-88.2628,32.3105525,-87.9289045,31.697881,-88.473227
Clarke,AL,001025,Central Time (US & Canada),31.6709,-87.8309,31.991355,-87.50093,31.185486,-88.1799583
Clay,AL,001027,Central Time (US & Canada),33.2691,-85.8605,33.754782,-86.542568,33.644356,-86.664839
Cleburne,AL,001029,Central Time (US & Canada),33.6745,-85.5188,33.9642039,-85.304439,33.469226,-85.88778200000002
Coffee,AL,001031,Central Time (US & Canada),31.4026,-85.9882,31.619311,-85.7891389,31.182023,-86.196365
Colbert,AL,001033,Central Time (US & Canada),34.7005,-87.8049,34.9012256,-87.4160079,34.56623,-88.139988
Conecuh,AL,001035,Central Time (US & Canada),31.4293,-86.9936,31.7530349,-86.662082,31.181133,-87.427516
Coosa,AL,001037,Central Time (US & Canada),32.9362,-86.2476,33.1047019,-85.999748,32.753434,-86.5181583
Covington,AL,001039,Central Time (US & Canada),31.2485,-86.4512,31.529623,-86.186876,30.993258,-86.7027909
Crenshaw,AL,001041,Central Time (US & Canada),31.7315,-86.3136,32.05171,-86.1439499,31.440072,-86.50394800000001
Cullman,AL,001043,Central Time (US & Canada),34.132,-86.8676,34.25071,-86.776552,34.0996929,-86.9007269
Dale,AL,001045,Central Time (US & Canada),31.4318,-85.611,31.620566,-85.415334,31.195179,-85.7915809
Dallas,AL,001047,Central Time (US & Canada),32.3258,-87.1065,32.729532,-86.806867,32.047202,-87.47308
DeKalb,AL,001049,Central Time (US & Canada),34.4598,-85.8041,34.860371,-85.513612,34.199262,-86.118911
Elmore,AL,001051,Central Time (US & Canada),32.5966,-86.1492,32.5658,-86.300308,32.519632,-86.34779999999999
Escambia,AL,001053,Central Time (US & Canada),31.1262,-87.1616,31.261997,-86.688063,30.994487,-87.61607400000001
Etowah,AL,001055,Central Time (US & Canada),34.0453,-86.0348,34.200756,-85.737138,33.841598,-86.3696209
Fayette,AL,001057,Central Time (US & Canada),33.7212,-87.7389,33.7327499,-87.8066379,33.6545039,-87.8551009
Franklin,AL,001059,Central Time (US & Canada),34.4417,-87.8438,32.4792239,-85.7852839,32.435434,-85.82699900000001
Geneva,AL,001061,Central Time (US & Canada),31.095,-85.839,31.087048,-85.839719,31.002001,-85.917436
Greene,AL,001063,Central Time (US & Canada),32.8531,-87.9522,33.1536569,-87.706271,32.517727,-88.2064197
Hale,AL,001065,Central Time (US & Canada),32.7627,-87.6291,33.006824,-87.420132,32.48068,-87.86974909999999
Henry,AL,001067,Central Time (US & Canada),31.5147,-85.2414,31.774364,-85.041305,31.307675,-85.4180349
Houston,AL,001069,Central Time (US & Canada),31.1532,-85.3025,31.314973,-84.999428,30.997064,-85.712436
Jackson,AL,001071,Central Time (US & Canada),34.7794,-85.9993,31.582973,-87.853652,31.491672,-87.921931
Jefferson,AL,001073,Central Time (US & Canada),33.5543,-86.8965,33.843237,-86.516662,33.245995,-87.3393409
Lamar,AL,001075,Central Time (US & Canada),33.7792,-88.0969,34.058333,-87.946305,33.523987,-88.274619
Lauderdale,AL,001077,Central Time (US & Canada),34.9015,-87.6544,35.007889,-87.210759,34.7334388,-88.1930557
Lawrence,AL,001079,Central Time (US & Canada),34.522,-87.311,34.79946899999999,-87.1052496,34.299096,-87.531024
Lee,AL,001081,Central Time (US & Canada),32.6012,-85.3556,32.746515,-85.0010676,32.4098399,-85.696955
Limestone,AL,001083,Central Time (US & Canada),34.8101,-86.9813,34.999024,-86.783582,34.5526134,-87.27529729999999
Lowndes,AL,001085,Central Time (US & Canada),32.1547,-86.6501,32.4066819,-86.396357,31.961601,-86.908597
Macon,AL,001087,Central Time (US & Canada),32.386,-85.6926,32.5959329,-85.433543,32.231949,-86.023164
Madison,AL,001089,Central Time (US & Canada),34.7631,-86.5502,34.761283,-86.7060499,34.6626119,-86.8156319
Marengo,AL,001091,Central Time (US & Canada),32.2476,-87.7895,32.5472679,-87.472206,31.989832,-88.1178091
Marion,AL,001093,Central Time (US & Canada),34.1366,-87.8871,32.6726339,-87.284151,32.59957,-87.3491959
Marshall,AL,001095,Central Time (US & Canada),34.3669,-86.3066,34.6001429,-86.057712,34.099097,-86.581936
Mobile,AL,001097,Central Time (US & Canada),30.5283,-88.2363,30.843458,-87.956616,30.560374,-88.22125290000001
Monroe,AL,001099,Central Time (US & Canada),31.5706,-87.3658,31.831795,-86.9058989,31.227268,-87.784796
Montgomery,AL,001101,Central Time (US & Canada),32.2202,-86.2076,32.437677,-86.072205,32.249921,-86.41987
Morgan,AL,001103,Central Time (US & Canada),34.4535,-86.8529,34.670251,-86.5510393,34.304694,-87.110199
Perry,AL,001105,Central Time (US & Canada),32.6385,-87.2942,32.875129,-87.017653,32.307279,-87.52568190000001
Pickens,AL,001107,Central Time (US & Canada),33.2809,-88.0887,33.534008,-87.83659600000001,32.991199,-88.34043190000001
Pike,AL,001109,Central Time (US & Canada),31.8024,-85.9409,32.06189000000001,-85.657668,31.616414,-86.1994079
Randolph,AL,001111,Central Time (US & Canada),33.2938,-85.4591,33.5013779,-85.23237800000001,33.106634,-85.653949
Russell,AL,001113,Central Time (US & Canada),32.2884,-85.1849,32.5101561,-84.888246,32.0617079,-85.434747
St. Clair,AL,001115,Central Time (US & Canada),33.7157,-86.3147,33.9890514,-86.04489769999999,33.3925686,-86.5778019
Shelby,AL,001117,Central Time (US & Canada),33.2643,-86.6607,33.5461559,-86.34182729999999,33.0194262,-87.02684590000001
Sumter,AL,001119,Central Time (US & Canada),32.591,-88.1988,32.9958499,-87.8410967,32.307437,-88.421453
Talladega,AL,001121,Central Time (US & Canada),33.38,-86.1659,33.470852,-86.0487179,33.392437,-86.160403
Tallapoosa,AL,001123,Central Time (US & Canada),32.8624,-85.7975,33.10734,-85.592989,32.49297,-86.01389689999999
Tuscaloosa,AL,001125,Central Time (US & Canada),33.2895,-87.525,33.458866,-87.2426289,33.114897,-87.66158890000001
Walker,AL,001127,Central Time (US & Canada),33.8034,-87.2973,34.0036176,-86.953616,33.5130179,-87.6361189
Washington,AL,001129,Central Time (US & Canada),31.4077,-88.2071,31.6993029,-87.887267,31.114064,-88.4644249
Wilcox,AL,001131,Central Time (US & Canada),31.9892,-87.3082,32.269036,-86.8565759,31.827123,-87.667945
Winston,AL,001133,Central Time (US & Canada),34.1492,-87.3737,34.3069969,-87.109911,33.9871796,-87.636573
Aleutians East,AK,002013,Alaska,55.6096,-161.2029,56.8804532,-158.8906139,53.9522351,-166.2000545
Aleutians West,AK,002016,,52.0877,-174.8314,57.2495906,-166.0392335,51.214766,172.4546967
Anchorage,AK,002020,Alaska,61.1948,-149.5182,61.4838912,-148.460007,60.733791,-150.2862832
Bethel,AK,002050,Alaska,60.6713,-162.8471,60.833492,-161.6692661,60.74809699999999,-161.91819
Denali,AK,002068,Alaska,62.9842,-154.2532,64.365138,-146.972013,62.72200400000001,-153.001339
Dillingham,AK,002070,Alaska,59.2984,-157.2451,59.10091680000001,-158.4231531,58.99756099999999,-158.62779
Fairbanks North Star,AK,002090,Alaska,64.7065,-151.4866,65.454475,-143.8847951,64.2576359,-148.667165
Haines,AK,002100,Alaska,59.0942,-135.4295,59.2926699,-135.383454,59.196884,-135.5283728
Juneau,AK,002110,Alaska,59.0942,-135.4295,58.97385180000001,-133.176444,57.795075,-135.1767145
Kenai Peninsula,AK,002122,Alaska,59.2984,-157.2451,61.428157,-148.5623681,58.645009,-154.748766
Ketchikan Gateway,AK,002130,Alaska,55.5399,-132.0549,55.9727569,-130.9289585,55.11006709999999,-131.8818702
Kodiak Island,AK,002150,Alaska,59.2984,-157.2451,57.997181,-152.159027,56.740906,-154.8015289
Lake and Peninsula,AK,002164,Alaska,55.6096,-161.2029,60.908538,-153.393185,55.6383909,-159.903652
Matanuska-Susitna,AK,002170,Alaska,61.5198,-156.3169,63.482913,-146.42522,61.1910885,-153.0051151
Nome,AK,002180,Alaska,64.5057,-168.3102,64.56107,-165.3221429,64.4872304,-165.50152
North Slope,AK,002185,Alaska,66.8027,-165.286,71.39038000000001,-141.0026569,67.9989399,-166.8479579
Northwest Arctic,AK,002188,Alaska,66.8027,-165.286,68.301028,-154.1322779,65.435857,-165.3498278
Prince of Wales-Outer Ke,AK,002201,Alaska,55.2951,-133.0075,,,,
Sitka,AK,002220,Alaska,58.1518,-136.5895,58.00138689999999,-134.616319,56.1608849,-136.4445706
Skagway-Hoonah-Angoon,AK,002232,Alaska,58.1518,-136.5895,59.79962599999999,-132.3679839,57.0098891,-137.946484
Southeast Fairbanks,AK,002240,Alaska,64.2155,-146.6153,65.840075,-141.0021109,61.90103000000001,-147.0031849
Valdez-Cordova,AK,002261,Alaska,60.3983,-148.9941,63.222612,-141.0018529,59.76097050000001,-148.7464499
Wade Hampton,AK,002270,Alaska,62.1753,-163.9603,63.2755977,-160.18666,60.9207906,-166.1875022
Wrangell-Petersburg,AK,002280,Alaska,58.0224,-133.7989,57.426861,-130.987445,55.645039,-134.666717
Yakutat,AK,002282,Alaska,59.9186,-140.5769,59.70326919999999,-139.4000908,59.446223,-139.8611908
Yukon-Koyukuk,AK,002290,Alaska,65.4916,-162.5763,68.5072979,-141.002465,61.945452,-161.0477061
Apache,AZ,004001,Arizona,36.4046,-110.9711,36.999389,-109.045223,33.475417,-110.000705
Cochise,AZ,004003,Arizona,31.6043,-110.3833,32.427652,-109.047612,31.332502,-110.460917
Coconino,AZ,004005,Arizona,35.7341,-112.5569,37.0032749,-110.750671,34.2584109,-113.354176
Gila,AZ,004007,Arizona,33.5759,-110.9898,34.4993119,-110.00058,32.9836729,-111.720728
Graham,AZ,004009,Arizona,31.9331,-110.3073,33.6527509,-109.113987,32.424475,-110.458136
Greenlee,AZ,004011,Arizona,32.8686,-109.7443,33.778748,-109.046564,32.4261769,-109.495774
La Paz,AZ,004012,Arizona,33.6128,-114.4701,34.319126,-113.333078,33.025385,-114.731223
Maricopa,AZ,004013,Arizona,33.697,-112.864,34.04817,-111.039905,32.5049379,-113.334436
Mohave,AZ,004015,Arizona,34.6762,-114.3492,37.0007699,-112.528968,34.209626,-114.743671
Navajo,AZ,004017,Arizona,35.4788,-111.1876,37.0042599,-109.826711,33.567175,-110.7509
Pima,AZ,004019,Arizona,32.2167,-112.9766,32.514187,-110.447318,31.426075,-113.334105
Pinal,AZ,004021,Arizona,32.1434,-112.064,33.466104,-110.448354,32.501202,-112.203736
Santa Cruz,AZ,004023,Arizona,31.6207,-111.163,31.73181899999999,-110.45172,31.332177,-111.36689
Yavapai,AZ,004025,Arizona,34.8361,-112.6554,35.531137,-111.461299,33.8881547,-113.334161
Yuma,AZ,004027,Arizona,32.6473,-114.5311,32.7322939,-114.45913,32.479067,-114.684986
Arkansas,AR,005001,Central Time (US & Canada),34.2908,-91.3749,34.56782889999999,-91.05207500000002,33.9375099,-91.711795
Ashley,AR,005003,Central Time (US & Canada),33.1912,-91.7679,33.3982139,-91.4573339,33.005915,-92.143596
Baxter,AR,005005,Central Time (US & Canada),36.2872,-92.337,,,,
Benton,AR,005007,Central Time (US & Canada),36.3392,-94.2573,34.650185,-92.51482,34.5344089,-92.621493
Boone,AR,005009,Central Time (US & Canada),36.3086,-93.0915,36.49843,-92.8540489,36.114132,-93.300828
Bradley,AR,005011,Central Time (US & Canada),33.4659,-92.1622,33.107684,-93.648759,33.089456,-93.66426
Calhoun,AR,005013,Central Time (US & Canada),33.558,-92.5031,33.802198,-92.3110859,33.26979,-92.7767439
Carroll,AR,005015,Central Time (US & Canada),36.341,-93.5382,36.499316,-93.2956859,36.1212639,-93.8905419
Chicot,AR,005017,Central Time (US & Canada),33.2672,-91.294,,,,
Clark,AR,005019,Central Time (US & Canada),34.051,-93.1764,34.340851,-92.8766019,33.7701209,-93.502208
Clay,AR,005021,Central Time (US & Canada),36.3685,-90.4173,36.49867589999999,-90.062733,36.200601,-90.8066159
Cleburne,AR,005023,Central Time (US & Canada),35.5381,-92.0267,35.71219,-91.789823,35.358287,-92.252759
Cleveland,AR,005025,Central Time (US & Canada),33.8984,-92.1852,,,,
Columbia,AR,005027,Central Time (US & Canada),33.2143,-93.2273,33.455045,-92.9784689,33.017268,-93.4905199
Conway,AR,005029,Central Time (US & Canada),35.2622,-92.7014,35.146803,-92.380752,35.005866,-92.541859
Craighead,AR,005031,Central Time (US & Canada),35.8308,-90.6328,35.99641,-90.2867069,35.6999179,-91.036965
Crawford,AR,005033,Central Time (US & Canada),35.5889,-94.243,35.7646359,-93.892247,35.3512726,-94.4931299
Crittenden,AR,005035,Central Time (US & Canada),35.2079,-90.3089,35.441763,-90.064612,34.83296990000001,-90.506475
Cross,AR,005037,Central Time (US & Canada),35.2958,-90.7713,35.449711,-90.502169,35.1433679,-91.04267000000002
Dallas,AR,005039,Central Time (US & Canada),33.9698,-92.6545,,,,
Desha,AR,005041,Central Time (US & Canada),33.8333,-91.254,34.119489,-90.8704609,33.517148,-91.557648
Drew,AR,005043,Central Time (US & Canada),33.5895,-91.72,33.792246,-91.4503249,33.38895400000001,-92.015334
Faulkner,AR,005045,Central Time (US & Canada),35.147,-92.3321,35.368395,-92.111463,34.8495462,-92.598367
Franklin,AR,005047,Central Time (US & Canada),35.5123,-93.8906,36.187215,-91.738563,36.1445529,-91.794675
Fulton,AR,005049,Central Time (US & Canada),36.3817,-91.8183,33.616957,-93.809119,33.6083579,-93.8185539
Garland,AR,005051,Central Time (US & Canada),34.5767,-93.1504,33.371728,-93.703677,33.3491349,-93.722042
Grant,AR,005053,Central Time (US & Canada),34.29,-92.4236,34.4958529,-92.208041,34.0596369,-92.678383
Greene,AR,005055,Central Time (US & Canada),36.1177,-90.5591,36.267992,-90.190207,35.964708,-90.8599407
Hempstead,AR,005057,Central Time (US & Canada),33.7354,-93.6684,34.008899,-93.456255,33.476075,-93.9680669
Hot Spring,AR,005059,Central Time (US & Canada),34.3177,-92.946,34.5061139,-92.668711,34.149622,-93.408124
Howard,AR,005061,Central Time (US & Canada),34.0887,-93.9934,34.355629,-93.8207219,33.747709,-94.2561279
Independence,AR,005063,Central Time (US & Canada),35.7415,-91.5698,35.942963,-91.1976229,35.526271,-91.870983
Izard,AR,005065,Central Time (US & Canada),36.0949,-91.9134,36.2612479,-91.674143,35.867411,-92.215203
Jackson,AR,005067,Central Time (US & Canada),35.5994,-91.2146,35.8900239,-91.032499,35.354245,-91.584682
Jefferson,AR,005069,Central Time (US & Canada),34.2688,-91.9315,,,,
Johnson,AR,005071,Central Time (US & Canada),35.5701,-93.4599,36.149737,-94.1477139,36.117032,-94.1980109
Lafayette,AR,005073,Central Time (US & Canada),33.2408,-93.6073,33.4820379,-93.365534,33.018442,-93.86041
Lawrence,AR,005075,Central Time (US & Canada),36.0413,-91.1071,36.257899,-90.7474709,35.88087,-91.35723
Lee,AR,005077,Central Time (US & Canada),34.7806,-90.782,34.9119419,-90.407944,34.6308984,-91.102542
Lincoln,AR,005079,Central Time (US & Canada),33.9575,-91.7333,35.970863,-94.38255,35.9334459,-94.4398899
Little River,AR,005081,Central Time (US & Canada),33.7005,-94.2343,33.945281,-93.824483,33.533673,-94.485878
Logan,AR,005083,Central Time (US & Canada),35.2153,-93.7163,35.423078,-93.278635,35.019715,-94.141835
Lonoke,AR,005085,Central Time (US & Canada),34.7542,-91.8887,34.812013,-91.875435,34.7696569,-91.9328829
Madison,AR,005087,Central Time (US & Canada),36.011,-93.7246,35.035604,-90.707212,35.005901,-90.751188
Marion,AR,005089,Central Time (US & Canada),36.2684,-92.6842,35.2532659,-90.128098,35.1534989,-90.286903
Miller,AR,005091,Central Time (US & Canada),33.3124,-93.8918,33.614089,-93.6655179,33.019067,-94.0434499
Mississippi,AR,005093,Central Time (US & Canada),35.7639,-90.054,36.00085990000001,-89.64483790000001,35.389277,-90.289017
Monroe,AR,005095,Central Time (US & Canada),34.6778,-91.2038,35.004261,-91.000458,34.336256,-91.447795
Montgomery,AR,005097,Central Time (US & Canada),34.5388,-93.6595,34.746463,-93.393889,34.3395269,-93.935378
Nevada,AR,005099,Central Time (US & Canada),33.6641,-93.3072,33.960851,-93.104289,33.440444,-93.4839739
Newton,AR,005101,Central Time (US & Canada),35.92,-93.2179,36.1251819,-92.9385099,35.724663,-93.5260869
Ouachita,AR,005103,Central Time (US & Canada),33.5933,-92.882,33.8224249,-92.566284,33.3555939,-93.1190139
Perry,AR,005105,Central Time (US & Canada),34.9474,-92.9315,35.04941790000001,-92.7863409,35.039989,-92.8033009
Phillips,AR,005107,Central Time (US & Canada),34.4283,-90.848,34.645721,-90.540736,34.118688,-91.1179049
Pike,AR,005109,Central Time (US & Canada),34.1636,-93.6564,34.350097,-93.370302,33.9430119,-93.937006
Poinsett,AR,005111,Central Time (US & Canada),35.574,-90.6629,35.7085549,-90.2862569,35.4385745,-91.039373
Polk,AR,005113,Central Time (US & Canada),34.4858,-94.2281,34.7289619,-93.9301009,34.189864,-94.4703399
Pope,AR,005115,Central Time (US & Canada),35.4476,-93.0342,35.728831,-92.8097629,35.11737400000001,-93.298959
Prairie,AR,005117,Central Time (US & Canada),34.8297,-91.5528,35.091411,-91.3438499,34.479639,-91.803879
Pulaski,AR,005119,Central Time (US & Canada),34.7699,-92.3118,35.0144839,-92.029507,34.4893519,-92.7554519
Randolph,AR,005121,Central Time (US & Canada),36.3415,-91.0278,36.498689,-90.7483829,36.114802,-91.407437
St. Francis,AR,005123,Central Time (US & Canada),35.022,-90.7478,36.461574,-90.1382,36.4486009,-90.148206
Saline,AR,005125,Central Time (US & Canada),34.6466,-92.6766,34.859128,-92.244209,34.4108809,-93.075279
Scott,AR,005127,Central Time (US & Canada),34.8608,-94.0633,34.718784,-92.0719869,34.676845,-92.126413
Searcy,AR,005129,Central Time (US & Canada),35.9109,-92.6995,35.26954,-91.660884,35.194945,-91.801136
Sebastian,AR,005131,Central Time (US & Canada),35.1993,-94.274,35.450911,-94.0285469,34.930929,-94.447774
Sevier,AR,005133,Central Time (US & Canada),33.9973,-94.2412,34.192596,-93.977053,33.7531702,-94.477299
Sharp,AR,005135,Central Time (US & Canada),36.1611,-91.4799,36.497653,-91.2585819,35.8906209,-91.710797
Stone,AR,005137,Central Time (US & Canada),35.8599,-92.1567,36.132988,-91.8360809,35.704932,-92.41841
Union,AR,005139,Central Time (US & Canada),33.1713,-92.5973,33.387887,-92.0691049,33.008162,-92.988715
Van Buren,AR,005141,Central Time (US & Canada),35.5807,-92.5157,35.486243,-94.2977339,35.40471,-94.415509
Washington,AR,005143,Central Time (US & Canada),35.98,-94.2147,33.780626,-93.6746,33.76533,-93.692206
White,AR,005145,Central Time (US & Canada),35.2563,-91.7457,35.5342119,-91.3452789,35.020575,-92.119833
Woodruff,AR,005147,Central Time (US & Canada),35.1863,-91.2431,35.445845,-91.039782,34.912452,-91.479075
Yell,AR,005149,Central Time (US & Canada),35.0026,-93.4113,35.3039674,-92.896109,34.743393,-93.710297
Alameda,CA,006001,Pacific Time (US & Canada),37.5938,-122.165,37.797192,-122.2247523,37.71863,-122.3319293
Alpine,CA,006003,Pacific Time (US & Canada),38.7829,-120.3423,32.889092,-116.694641,32.798908,-116.819092
Amador,CA,006005,Pacific Time (US & Canada),38.6268,-121.5625,38.709022,-120.072332,38.2238807,-121.02771
Butte,CA,006007,Pacific Time (US & Canada),39.3764,-121.926,40.152032,-121.076695,39.295668,-122.069431
Calaveras,CA,006009,Pacific Time (US & Canada),37.7581,-121.041,38.5099899,-120.019951,37.8314219,-120.9876929
Colusa,CA,006011,Pacific Time (US & Canada),39.8175,-122.7565,39.2183459,-121.988425,39.189088,-122.027305
Contra Costa,CA,006013,Pacific Time (US & Canada),37.5938,-122.165,38.0998779,-121.534102,37.718629,-122.4357179
Del Norte,CA,006015,Pacific Time (US & Canada),41.0243,-124.0956,42.001047,-123.517907,41.380776,-124.2645251
El Dorado,CA,006017,Pacific Time (US & Canada),38.6268,-121.5625,,,,
Fresno,CA,006019,Pacific Time (US & Canada),36.6211,-120.5021,36.908905,-119.65464,36.66216190000001,-119.934483
Glenn,CA,006021,Pacific Time (US & Canada),39.8175,-122.7565,39.8005609,-121.856381,39.3829459,-122.938413
Humboldt,CA,006023,Pacific Time (US & Canada),41.0243,-124.0956,41.465846,-123.40604,40.0012479,-124.4096195
Imperial,CA,006025,Pacific Time (US & Canada),33.0422,-115.4701,32.8690799,-115.535756,32.8177699,-115.594846
Inyo,CA,006027,Pacific Time (US & Canada),36.8269,-118.341,37.465238,-115.648357,35.7867619,-118.790031
Kern,CA,006029,Pacific Time (US & Canada),35.7786,-119.7597,35.7982019,-117.616195,34.7906089,-120.194152
Kings,CA,006031,Pacific Time (US & Canada),35.7786,-119.7597,36.4889409,-119.474342,35.788678,-120.315068
Lake,CA,006033,Pacific Time (US & Canada),39.8175,-122.7565,39.5814,-122.340172,38.66750589999999,-123.094216
Lassen,CA,006035,Pacific Time (US & Canada),40.1971,-121.3501,41.184514,-119.995598,39.7076579,-121.332338
Los Angeles,CA,006037,Pacific Time (US & Canada),34.0839,-118.6898,34.337306,-118.155289,33.7036918,-118.668176
Madera,CA,006039,Pacific Time (US & Canada),37.051,-120.1167,37.00736,-120.034061,36.9287689,-120.183635
Marin,CA,006041,Pacific Time (US & Canada),38.2364,-122.9543,38.320945,-122.4186974,37.8152824,-123.0478511
Mariposa,CA,006043,Pacific Time (US & Canada),37.051,-120.1167,37.503389,-119.946806,37.460871,-119.988351
Mendocino,CA,006045,Pacific Time (US & Canada),39.2518,-123.582,39.323305,-123.77067,39.3009008,-123.8164897
Merced,CA,006047,Pacific Time (US & Canada),36.6211,-120.5021,37.3756909,-120.399427,37.221798,-120.543354
Modoc,CA,006049,Pacific Time (US & Canada),41.8639,-121.6371,41.997613,-119.998287,41.183484,-121.457213
Mono,CA,006051,Pacific Time (US & Canada),37.939,-118.8867,38.713212,-117.832726,37.4625879,-119.651509
Monterey,CA,006053,Pacific Time (US & Canada),36.6165,-121.7566,36.6185127,-121.80811,36.5702452,-121.926888
Napa,CA,006055,Pacific Time (US & Canada),38.5515,-122.6939,38.35083400000001,-122.222196,38.221091,-122.357721
Nevada,CA,006057,Pacific Time (US & Canada),39.3764,-121.926,39.5269199,-120.003773,39.005347,-121.279784
Orange,CA,006059,Pacific Time (US & Canada),33.7028,-117.7899,33.847415,-117.736118,33.773617,-117.904336
Placer,CA,006061,Pacific Time (US & Canada),38.6268,-121.5625,39.316496,-120.005577,38.7129693,-121.484376
Plumas,CA,006063,Pacific Time (US & Canada),40.1971,-121.3501,40.449715,-120.099339,39.5972639,-121.49788
Riverside,CA,006065,Pacific Time (US & Canada),33.6256,-117.455,34.01951409999999,-117.275174,33.872517,-117.523882
Sacramento,CA,006067,Pacific Time (US & Canada),38.1432,-121.7623,38.685507,-121.36274,38.437574,-121.56012
San Benito,CA,006069,Pacific Time (US & Canada),36.6769,-121.5047,,,,
San Bernardino,CA,006071,Pacific Time (US & Canada),33.8486,-117.2412,34.230706,-117.164972,34.05011289999999,-117.402452
CA524,CA,0San Bernardino,,0.0,35.1398,41.601735,-83.43220900000001,41.59733200000001,-83.433461
San Diego,CA,006073,Pacific Time (US & Canada),33.6256,-117.455,33.114249,-116.90816,32.534856,-117.2821665
San Francisco,CA,006075,Pacific Time (US & Canada),37.7558,-122.4423,37.9297707,-122.3279148,37.6933354,-123.1077733
San Joaquin,CA,006077,Pacific Time (US & Canada),38.1432,-121.7623,36.614464,-120.173244,36.595276,-120.219046
San Luis Obispo,CA,006079,Pacific Time (US & Canada),35.327,-120.7407,35.31199,-120.617795,35.233002,-120.722977
San Mateo,CA,006081,Pacific Time (US & Canada),37.374,-122.3923,37.5923972,-122.275478,37.510937,-122.355782
Santa Barbara,CA,006083,Pacific Time (US & Canada),34.7217,-120.4263,34.461145,-119.63992,34.3952424,-119.859791
 and Fresno County Foothills,CA,0CA093,,0.0,0.0,36.6138982,-119.5548443,36.6127725,-119.5549805
Santa Clara,CA,006085,Pacific Time (US & Canada),37.5938,-122.165,37.418939,-121.929735,37.322842,-122.00537
Santa Cruz,CA,006087,Pacific Time (US & Canada),37.374,-122.3923,37.010849,-121.986219,36.9480051,-122.108741
Shasta,CA,006089,Pacific Time (US & Canada),39.8175,-122.7565,41.184978,-121.319972,40.2853749,-123.068838
Sierra,CA,006091,Pacific Time (US & Canada),40.466,-120.5471,39.776877,-120.00082,39.39148489999999,-121.058203
Siskiyou,CA,006093,Pacific Time (US & Canada),41.5562,-123.1641,42.0095169,-121.445994,40.992193,-123.719174
Solano,CA,006095,Pacific Time (US & Canada),38.1432,-121.7623,38.53904989999999,-121.593273,38.039753,-122.406964
Sonoma,CA,006097,Pacific Time (US & Canada),38.2364,-122.9543,38.3075909,-122.416089,38.2745959,-122.48211
Stanislaus,CA,006099,Pacific Time (US & Canada),37.7581,-121.041,38.077421,-120.387329,37.134774,-121.486775
Sutter,CA,006101,Pacific Time (US & Canada),39.3764,-121.926,39.1716399,-121.728776,39.14217,-121.772675
Tehama,CA,006103,Pacific Time (US & Canada),39.8175,-122.7565,40.030414,-122.115589,40.014682,-122.137954
Trinity,CA,006105,Pacific Time (US & Canada),40.7799,-123.7672,41.368139,-122.445453,39.977015,-123.6238909
Tulare,CA,006107,Pacific Time (US & Canada),35.7797,-119.1856,36.24767990000001,-119.295804,36.123464,-119.392845
Tuolumne,CA,006109,Pacific Time (US & Canada),37.7581,-121.041,38.433147,-119.196182,37.633704,-120.653237
Ventura,CA,006111,Pacific Time (US & Canada),34.6292,-119.1351,34.370909,-119.14556,34.2345617,-119.322627
Yolo,CA,006113,Pacific Time (US & Canada),38.6268,-121.5625,38.92593,-121.501017,38.3130479,-122.422048
Yuba,CA,006115,Pacific Time (US & Canada),39.3764,-121.926,39.6394589,-121.009477,38.918349,-121.636472
Adams,CO,008001,Mountain Time (US & Canada),39.7656,-104.804,40.001478,-103.705695,39.7368789,-105.0533389
Alamosa,CO,008003,Mountain Time (US & Canada),37.5614,-105.8929,37.494062,-105.853224,37.44083,-105.910331
Arapahoe,CO,008005,Mountain Time (US & Canada),39.7656,-104.804,39.740835,-103.706547,39.563764,-105.0542146
Archuleta,CO,008007,Mountain Time (US & Canada),37.5206,-107.6597,37.423623,-106.476229,36.992424,-107.482413
Baca,CO,008009,Mountain Time (US & Canada),37.3192,-102.5605,37.644424,-102.040878,36.993016,-103.087277
Bent,CO,008011,Mountain Time (US & Canada),37.9551,-103.0717,38.267796,-102.740346,37.643299,-103.404426
Boulder,CO,008013,Mountain Time (US & Canada),40.488,-105.9071,40.0945509,-105.178197,39.9640689,-105.301758
Broomfield,CO,008014,Mountain Time (US & Canada),39.9606,-105.156,40.044227,-104.961151,39.889064,-105.165683
Chaffee,CO,008015,Mountain Time (US & Canada),38.8197,-106.3586,39.057908,-105.878033,38.422091,-106.599516
Cheyenne,CO,008017,Mountain Time (US & Canada),38.8279,-102.6034,39.04708189999999,-102.044792,38.6124499,-103.172943
Clear Creek,CO,008019,Mountain Time (US & Canada),39.6044,-105.8505,39.851996,-105.397949,39.564865,-105.92703
Conejos,CO,008021,Mountain Time (US & Canada),37.4272,-106.7002,,,,
Costilla,CO,008023,Mountain Time (US & Canada),37.2224,-105.7537,37.658305,-105.12972,36.995165,-105.771285
Crowley,CO,008025,Mountain Time (US & Canada),38.3266,-103.7849,38.195682,-103.848012,38.189634,-103.866552
Custer,CO,008027,Mountain Time (US & Canada),37.9767,-105.617,38.265191,-105.048287,37.889703,-105.796897
Delta,CO,008029,Mountain Time (US & Canada),38.5539,-108.4296,38.803776,-108.021863,38.7147499,-108.157574
Denver,CO,008031,Mountain Time (US & Canada),39.7656,-104.804,39.91424689999999,-104.600296,39.6144309,-105.109927
Dolores,CO,008033,Mountain Time (US & Canada),37.3809,-108.7278,37.479703,-108.480961,37.4683487,-108.5190964
Douglas,CO,008035,Mountain Time (US & Canada),39.4838,-105.2681,39.5662499,-104.660516,39.129438,-105.3292199
Eagle,CO,008037,Mountain Time (US & Canada),39.9766,-107.4376,39.673839,-106.787227,39.6049719,-106.846628
Elbert,CO,008039,Mountain Time (US & Canada),39.3075,-104.5091,39.2249709,-104.5329579,39.2101289,-104.550511
El Paso,CO,008041,Mountain Time (US & Canada),38.8708,-105.113,39.129939,-104.051525,38.51944900000001,-105.072529
Fremont,CO,008043,Mountain Time (US & Canada),38.6011,-105.6475,38.697581,-104.940366,38.257548,-106.012789
Garfield,CO,008045,Mountain Time (US & Canada),40.444,-108.6994,40.091538,-107.031772,39.365859,-109.051414
Gilpin,CO,008047,Mountain Time (US & Canada),39.6044,-105.8505,39.938091,-105.397445,39.745801,-105.700784
Grand,CO,008049,Mountain Time (US & Canada),40.6175,-106.6092,40.486252,-105.62609,39.6841219,-106.652957
Gunnison,CO,008051,Mountain Time (US & Canada),38.6735,-107.9201,38.55899489999999,-106.902668,38.5295599,-106.950918
Hinsdale,CO,008053,Mountain Time (US & Canada),37.5206,-107.6597,38.147267,-107.000602,37.42267289999999,-107.591367
Huerfano,CO,008055,Mountain Time (US & Canada),37.9767,-105.617,38.018946,-104.3511089,37.289117,-105.501755
Jackson,CO,008057,Mountain Time (US & Canada),40.6175,-106.6092,41.00272289999999,-105.851755,40.3233819,-106.873221
Jefferson,CO,008059,Mountain Time (US & Canada),39.6044,-105.8505,39.914386,-105.04874,39.12954300000001,-105.39915
Kiowa,CO,008061,Mountain Time (US & Canada),38.424,-103.0919,39.352868,-104.426046,39.334786,-104.474646
Kit Carson,CO,008063,Mountain Time (US & Canada),39.3054,-102.6029,38.771437,-102.785517,38.756499,-102.804595
Lake,CO,008065,Mountain Time (US & Canada),38.8197,-106.3586,39.381008,-106.135529,39.056073,-106.586338
La Plata,CO,008067,Mountain Time (US & Canada),37.1488,-107.8775,37.640329,-107.481424,36.999015,-108.381069
Larimer,CO,008069,Mountain Time (US & Canada),40.488,-105.9071,40.998441,-104.943052,40.257784,-106.195438
Las Animas,CO,008071,Mountain Time (US & Canada),37.2046,-105.1708,38.0800629,-103.211921,38.059101,-103.24503
Lincoln,CO,008073,Mountain Time (US & Canada),39.356,-103.6814,39.56657,-103.154376,38.51640889999999,-104.055539
Logan,CO,008075,Mountain Time (US & Canada),40.7247,-103.1101,41.002558,-102.65088,40.435294,-103.5818929
Mesa,CO,008077,Mountain Time (US & Canada),38.1963,-108.7095,39.366712,-107.377479,38.499987,-109.060253
Mineral,CO,008079,Mountain Time (US & Canada),38.0229,-106.7318,37.9750389,-106.693523,37.39230390000001,-107.145138
Moffat,CO,008081,Mountain Time (US & Canada),40.444,-108.6994,38.012386,-105.896407,37.990223,-105.915168
Montezuma,CO,008083,Mountain Time (US & Canada),37.3809,-108.7278,39.5848609,-105.86583,39.5785519,-105.871246
Montrose,CO,008085,Mountain Time (US & Canada),38.1963,-108.7095,38.5243369,-107.783794,38.42147,-107.924288
Morgan,CO,008087,Mountain Time (US & Canada),40.2627,-103.8098,40.524391,-103.464455,40.00083600000001,-104.150538
Otero,CO,008089,Mountain Time (US & Canada),37.9027,-103.7164,38.2655079,-103.3981079,37.642936,-104.062073
Ouray,CO,008091,Mountain Time (US & Canada),38.5539,-108.4296,38.045065,-107.661235,38.016597,-107.685249
Park,CO,008093,Mountain Time (US & Canada),39.6044,-105.8505,45.005904,-108.550562,43.801156,-111.056889
Phillips,CO,008095,Mountain Time (US & Canada),40.5939,-102.3575,40.7498269,-102.051274,40.438466,-102.665595
Pitkin,CO,008097,Mountain Time (US & Canada),39.6286,-107.0292,38.6143329,-106.507195,38.602658,-106.525909
Prowers,CO,008099,Mountain Time (US & Canada),37.9552,-102.3933,38.268774,-102.041582,37.6434859,-102.747991
Pueblo,CO,008101,Mountain Time (US & Canada),38.046,-105.1469,38.345385,-104.460868,38.1891059,-104.7208689
Rio Blanco,CO,008103,Mountain Time (US & Canada),40.444,-108.6994,40.2260629,-107.037363,39.649712,-109.051163
Rio Grande,CO,008105,Mountain Time (US & Canada),38.0229,-106.7318,37.8352439,-106.0387499,37.39935,-106.7118349
Routt,CO,008107,Mountain Time (US & Canada),40.4046,-107.9134,41.0034439,-106.626112,39.9186709,-107.442594
Saguache,CO,008109,Mountain Time (US & Canada),38.0229,-106.7318,38.089788,-106.132253,38.0825279,-106.150944
San Juan,CO,008111,Mountain Time (US & Canada),37.5206,-107.6597,37.965015,-107.458114,37.6394779,-107.97506
San Miguel,CO,008113,Mountain Time (US & Canada),37.3809,-108.7278,38.154959,-107.732787,37.773556,-109.043121
Sedgwick,CO,008115,Mountain Time (US & Canada),40.8758,-102.3518,40.939949,-102.519347,40.930197,-102.531994
Summit,CO,008117,Mountain Time (US & Canada),40.0726,-106.209,39.924914,-105.775702,39.357379,-106.440301
Teller,CO,008119,Mountain Time (US & Canada),38.4443,-105.1148,39.129819,-104.938977,38.647531,-105.330643
Washington,CO,008121,Mountain Time (US & Canada),39.971,-103.2013,40.438508,-102.779943,39.5656539,-103.707072
Weld,CO,008123,Mountain Time (US & Canada),40.7183,-104.8423,41.002054,-103.573306,40.000251,-105.05672
Yuma,CO,008125,Mountain Time (US & Canada),40.0029,-102.4243,40.14,-102.680949,40.104281,-102.739383
Fairfield,CT,009001,Eastern Time (US & Canada),41.1301,-73.435,41.2319929,-73.2178071,41.1178934,-73.3384287
Hartford,CT,009003,Eastern Time (US & Canada),41.8064,-72.7328,41.807575,-72.6425359,41.7238,-72.7176379
Litchfield,CT,009005,Eastern Time (US & Canada),41.8851,-73.2502,41.7938119,-73.068032,41.6728479,-73.298564
Middlesex,CT,009007,Eastern Time (US & Canada),41.4977,-72.5551,41.646999,-72.305531,41.2545917,-72.7529409
New Haven,CT,009009,Eastern Time (US & Canada),41.4648,-72.9956,41.35038,-72.8601439,41.2463904,-72.998048
New London,CT,009011,Eastern Time (US & Canada),41.3615,-72.1034,41.386998,-72.082894,41.30242440000001,-72.128721
Tolland,CT,009013,Eastern Time (US & Canada),41.855,-72.3365,41.929896,-72.290955,41.82549789999999,-72.4313279
Windham,CT,009015,Eastern Time (US & Canada),41.83,-71.9875,41.756211,-72.112043,41.657627,-72.25328
Kent,DE,010001,Eastern Time (US & Canada),39.0867,-75.5688,39.3655569,-75.3095735,38.8287229,-75.7599879
New Castle,DE,010003,Eastern Time (US & Canada),39.581,-75.6489,39.6909859,-75.5344372,39.6524873,-75.606354
Sussex,DE,010005,Eastern Time (US & Canada),38.6653,-75.4181,38.9617409,-75.0483457,38.451018,-75.7227549
District of Columbia,DC,011001,Eastern Time (US & Canada),38.9093,-77.0146,38.995548,-76.909393,38.8031073,-77.119759
Alachua,FL,012001,Eastern Time (US & Canada),29.6749,-82.3576,29.839996,-82.381407,29.718304,-82.555449
Baker,FL,012003,Eastern Time (US & Canada),30.331,-82.2846,,,,
Bay,FL,012005,Eastern Time (US & Canada),30.2213,-85.6654,30.567682,-85.383743,29.9243059,-85.9960748
Bradford,FL,012007,Eastern Time (US & Canada),29.9502,-82.1689,30.143241,-82.0461119,29.7182524,-82.41872800000002
Brevard,FL,012009,Eastern Time (US & Canada),28.5586,-80.7806,28.791396,-80.4463785,27.822058,-80.98725
Broward,FL,012011,Eastern Time (US & Canada),26.1632,-80.6145,26.334698,-80.0747294,25.95675,-80.881233
Calhoun,FL,012013,Central Time (US & Canada),30.4061,-85.1972,30.608079,-84.932519,30.199889,-85.3898689
Charlotte,FL,012015,Eastern Time (US & Canada),26.9689,-82.1081,27.035288,-81.562202,26.7695519,-82.3746591
Citrus,FL,012017,Eastern Time (US & Canada),28.8507,-82.4673,29.052903,-82.16914100000001,28.665671,-82.7665408
Clay,FL,012019,Eastern Time (US & Canada),29.9831,-81.8579,30.19346599999999,-81.6040115,29.71867,-82.0494399
Collier,FL,012021,Eastern Time (US & Canada),26.015,-81.6017,26.5183019,-80.87274800000002,25.8030379,-81.8459029
Columbia,FL,012023,Eastern Time (US & Canada),30.2243,-82.6215,30.597719,-82.452518,29.825587,-82.80011300000001
DeSoto,FL,012027,Eastern Time (US & Canada),27.1863,-81.8093,27.340715,-81.562196,27.031701,-82.057631
Dixie,FL,012029,Eastern Time (US & Canada),29.4924,-83.2251,29.825437,-82.9039559,29.2896274,-83.4148049
Duval,FL,012031,Eastern Time (US & Canada),30.3302,-81.674,30.586232,-81.38000869999999,30.103748,-82.04950190000001
Escambia,FL,012033,Central Time (US & Canada),30.8725,-87.4324,30.999045,-86.91929100000002,30.274999,-87.634896
Flagler,FL,012035,Eastern Time (US & Canada),29.4605,-81.3145,29.670671,-81.1020838,29.261133,-81.5236599
Franklin,FL,012037,Eastern Time (US & Canada),29.9462,-84.8653,30.013931,-84.33333209999999,29.5863484,-85.2229583
Gadsden,FL,012039,Eastern Time (US & Canada),30.5795,-84.6137,30.7112399,-84.28255890000001,30.387811,-84.932519
Gilchrist,FL,012041,Eastern Time (US & Canada),29.7259,-82.8005,29.935685,-82.656263,29.56246699999999,-82.9730539
Glades,FL,012043,Eastern Time (US & Canada),26.9605,-81.2397,27.210909,-80.8702359,26.768203,-81.5659309
Gulf,FL,012045,,29.8173,-85.2726,30.201421,-85.0178619,29.6567996,-85.41768549999999
Hamilton,FL,012047,Eastern Time (US & Canada),30.4964,-82.9478,30.634417,-82.645394,30.317262,-83.309613
Hardee,FL,012049,Eastern Time (US & Canada),27.4927,-81.8099,27.646647,-81.5633019,27.336709,-82.055753
Hendry,FL,012051,Eastern Time (US & Canada),26.5473,-81.1718,26.7978788,-80.879809,26.253045,-81.566304
Hernando,FL,012053,Eastern Time (US & Canada),28.5528,-82.4209,29.008251,-82.311686,28.873071,-82.428223
Highlands,FL,012055,Eastern Time (US & Canada),27.3434,-81.3409,27.646647,-80.94180800000001,27.032288,-81.563936
Holmes,FL,012059,Central Time (US & Canada),30.8679,-85.8143,30.996931,-85.497991,30.702975,-86.0377719
Indian River,FL,012061,Eastern Time (US & Canada),27.6929,-80.6158,27.8600216,-80.3214326,27.557213,-80.8815719
Jackson,FL,012063,Central Time (US & Canada),30.7956,-85.2194,31.000968,-84.8579209,30.564335,-85.600291
Jefferson,FL,012065,Eastern Time (US & Canada),30.1477,-84.0221,30.672127,-83.6041209,30.069088,-84.076234
Lafayette,FL,012067,Eastern Time (US & Canada),29.9855,-83.1811,30.260676,-82.87522,29.822222,-83.37089
Lake,FL,012069,Eastern Time (US & Canada),28.5634,-81.8061,29.27675,-81.349643,28.34518,-81.957641
Lee,FL,012071,Eastern Time (US & Canada),26.6135,-81.8902,26.789551,-81.56218,26.3162339,-82.2725902
Leon,FL,012073,Eastern Time (US & Canada),30.4581,-84.2779,30.685334,-83.977165,30.273438,-84.715356
Levy,FL,012075,Eastern Time (US & Canada),29.3216,-82.7385,29.591315,-82.403161,28.990046,-83.1656509
Liberty,FL,012077,Eastern Time (US & Canada),30.2414,-84.8829,30.606393,-84.54287300000001,29.971399,-85.154015
Madison,FL,012079,Eastern Time (US & Canada),30.4442,-83.47,30.484893,-83.3996899,30.457677,-83.435892
Manatee,FL,012081,Eastern Time (US & Canada),27.4713,-82.2978,27.64668,-82.054349,27.207769,-82.7460749
Marion,FL,012083,Eastern Time (US & Canada),29.2103,-82.0568,29.5189778,-81.638696,28.959778,-82.53622
Martin,FL,012085,Eastern Time (US & Canada),27.0844,-80.3893,,,,
Miami-Dade,FL,012086,Eastern Time (US & Canada),25.299,-80.6497,25.855606,-80.14240029999999,25.709042,-80.31976
Lower Keys in Monroe,FL,012087,Eastern Time (US & Canada),24.6514,-81.5527,24.6474118,-81.55332159999999,24.6048806,-81.5968458
Nassau,FL,012089,Eastern Time (US & Canada),30.6095,-81.8085,30.8297484,-81.4267295,30.273337,-82.050331
Okaloosa,FL,012091,Central Time (US & Canada),30.563,-86.6034,30.99698,-86.388515,30.3781762,-86.80028589999999
Okeechobee,FL,012093,Eastern Time (US & Canada),27.4283,-80.9015,27.2070402,-80.6214619,26.7175646,-81.00382390000001
Orange,FL,012095,Eastern Time (US & Canada),28.5148,-81.3238,28.7860889,-80.870879,28.346725,-81.6585983
Osceola,FL,012097,Eastern Time (US & Canada),28.0627,-81.1495,28.348585,-80.861395,27.64199,-81.657268
Palm Beach,FL,012099,Eastern Time (US & Canada),26.6172,-80.5109,26.7714841,-80.0317097,26.5943506,-80.0454819
Pasco,FL,012101,Eastern Time (US & Canada),28.3093,-82.3912,28.478837,-82.0546969,28.169972,-82.8519245
Pinellas,FL,012103,Eastern Time (US & Canada),27.9283,-82.7219,28.173346,-82.5824471,27.6113352,-82.8514891
Polk,FL,012105,Eastern Time (US & Canada),27.9489,-81.6978,28.361868,-81.13105089999999,27.643238,-82.106236
Putnam,FL,012107,Eastern Time (US & Canada),29.6086,-81.7442,29.8395694,-81.433554,29.3245928,-82.056151
St. Johns,FL,012109,Eastern Time (US & Canada),29.9013,-81.4439,30.252941,-81.21301559999999,29.622432,-81.66928709999999
St. Lucie,FL,012111,Eastern Time (US & Canada),27.3764,-80.4836,27.512972,-80.3315787,27.47309,-80.3517909
Santa Rosa,FL,012113,Central Time (US & Canada),30.8503,-87.036,30.999547,-86.785692,30.3417756,-87.313908
Sarasota,FL,012115,Eastern Time (US & Canada),27.1806,-82.3219,27.389122,-82.478641,27.293016,-82.58909969999999
Seminole,FL,012117,Eastern Time (US & Canada),28.717,-81.2362,27.875832,-82.753841,27.809372,-82.817027
Sumter,FL,012119,Eastern Time (US & Canada),28.7046,-82.081,28.96053,-81.9532909,28.305265,-82.3115969
Suwannee,FL,012121,Eastern Time (US & Canada),30.1956,-82.9915,30.442519,-82.7589979,29.882489,-83.25323600000002
Taylor,FL,012123,Eastern Time (US & Canada),29.9259,-83.6703,30.3042121,-83.318859,29.665951,-83.992384
Union,FL,012125,Eastern Time (US & Canada),30.0439,-82.3714,30.143117,-82.137858,29.919923,-82.576143
Volusia,FL,012127,Eastern Time (US & Canada),29.0924,-81.3638,29.427071,-80.73296429999999,28.612662,-81.68082439999999
Wakulla,FL,012129,Eastern Time (US & Canada),30.2017,-84.4474,30.303501,-84.075502,29.9690588,-84.737803
Walton,FL,012131,Central Time (US & Canada),30.8499,-86.2133,30.994553,-85.84442100000001,30.2692568,-86.39734390000001
Washington,FL,012133,Central Time (US & Canada),30.6107,-85.6653,30.830552,-85.43226,30.38932,-85.99369
Appling,GA,013001,Eastern Time (US & Canada),31.7493,-82.289,,,,
Atkinson,GA,013003,Eastern Time (US & Canada),31.2971,-82.88,31.420395,-82.6289599,31.18301199999999,-83.1415859
Bacon,GA,013005,Eastern Time (US & Canada),31.5537,-82.4527,31.710796,-82.22658500000001,31.416906,-82.6282729
Baker,GA,013007,Eastern Time (US & Canada),31.3262,-84.4447,31.454761,-84.1410059,31.078396,-84.641953
Baldwin,GA,013009,Eastern Time (US & Canada),33.069,-83.2499,34.5082949,-83.520973,34.454322,-83.590109
Banks,GA,013011,Eastern Time (US & Canada),34.3541,-83.4974,34.491734,-83.3378489,34.197499,-83.66967
Barrow,GA,013013,Eastern Time (US & Canada),33.9932,-83.7127,34.127517,-83.537385,33.894478,-83.869113
Bartow,GA,013015,Eastern Time (US & Canada),34.2379,-84.8405,32.890814,-82.46157,32.869973,-82.4835569
Ben Hill,GA,013017,Eastern Time (US & Canada),31.7598,-83.2205,31.851987,-82.995666,31.651691,-83.484529
Berrien,GA,013019,Eastern Time (US & Canada),31.2761,-83.2297,31.4760444,-83.033468,31.025405,-83.43901
Bibb,GA,013021,Eastern Time (US & Canada),32.8067,-83.6979,32.9527919,-83.489429,32.660643,-83.893034
Bleckley,GA,013023,Eastern Time (US & Canada),32.4344,-83.3279,32.584201,-83.1389909,32.272489,-83.4980889
Brantley,GA,013025,Eastern Time (US & Canada),31.197,-81.9819,31.373721,-81.7316939,31.010441,-82.286137
Brooks,GA,013027,Eastern Time (US & Canada),30.842,-83.5803,33.313043,-84.4434639,33.27285,-84.4733959
Bryan,GA,013029,Eastern Time (US & Canada),32.0404,-81.475,32.24131,-81.138324,31.7263281,-81.781712
Bulloch,GA,013031,Eastern Time (US & Canada),32.3969,-81.7432,32.653433,-81.433044,32.15289,-82.030233
Burke,GA,013033,Eastern Time (US & Canada),33.0612,-82.0008,33.2972169,-81.541831,32.803724,-82.316515
Butts,GA,013035,Eastern Time (US & Canada),33.2891,-83.9572,,,,
Calhoun,GA,013037,Eastern Time (US & Canada),31.5292,-84.6249,34.5674549,-84.8902619,34.429456,-84.981161
Camden,GA,013039,Eastern Time (US & Canada),30.9642,-81.7688,31.169595,-81.40354649999999,30.7114406,-81.936988
Candler,GA,013043,Eastern Time (US & Canada),32.4035,-82.0737,32.560063,-81.918652,32.268783,-82.254572
Carroll,GA,013045,Eastern Time (US & Canada),33.5828,-85.0797,33.812357,-84.8089339,33.425506,-85.33823
Catoosa,GA,013047,Eastern Time (US & Canada),34.9036,-85.1381,34.9876469,-84.9796609,34.7676389,-85.265114
Charlton,GA,013049,Eastern Time (US & Canada),30.7818,-82.138,31.075467,-81.8918779,30.3555909,-82.421097
Chatham,GA,013051,Eastern Time (US & Canada),32.0772,-81.2278,32.237591,-80.84075519999999,31.7200316,-81.3916979
Chattahoochee,GA,013053,Eastern Time (US & Canada),32.347,-84.787,32.534956,-84.63732300000001,32.220951,-85.008096
Chattooga,GA,013055,Eastern Time (US & Canada),34.475,-85.3454,34.5893329,-85.107748,34.286097,-85.527261
Cherokee,GA,013057,Eastern Time (US & Canada),34.2439,-84.4764,34.41259,-84.2575859,34.073298,-84.65923900000001
Clarke,GA,013059,Eastern Time (US & Canada),33.9513,-83.3674,34.040572,-83.24086,33.847977,-83.537385
Clay,GA,013061,Eastern Time (US & Canada),31.6264,-84.9803,31.78008759999999,-84.799134,31.485871,-85.1195772
Clayton,GA,013063,Eastern Time (US & Canada),33.5419,-84.3577,34.892851,-83.383483,34.8640149,-83.4183819
Clinch,GA,013065,Eastern Time (US & Canada),30.9151,-82.7063,31.184154,-82.418632,30.581767,-82.9713359
Cobb,GA,013067,Eastern Time (US & Canada),33.9415,-84.5767,34.0814329,-84.3751949,33.743507,-84.7396359
Coffee,GA,013069,Eastern Time (US & Canada),31.5492,-82.8493,31.812511,-82.596283,31.363884,-83.151141
Colquitt,GA,013071,Eastern Time (US & Canada),31.1884,-83.7688,31.224525,-84.6882859,31.151297,-84.757598
Columbia,GA,013073,Eastern Time (US & Canada),33.5442,-82.264,33.6971996,-82.028238,33.354635,-82.4418267
Cook,GA,013075,Eastern Time (US & Canada),31.154,-83.4305,31.350361,-83.2797279,31.027275,-83.5770529
Coweta,GA,013077,Eastern Time (US & Canada),33.3535,-84.7633,33.511758,-84.4970429,33.191043,-85.0153579
Crawford,GA,013079,Eastern Time (US & Canada),32.7145,-83.9864,33.8911945,-83.14094800000001,33.874088,-83.1661259
Crisp,GA,013081,Eastern Time (US & Canada),31.923,-83.7681,32.030602,-83.6095139,31.803495,-83.96061550000002
Dade,GA,013083,Eastern Time (US & Canada),34.8546,-85.5045,34.9846779,-85.363919,34.623858,-85.605165
Dawson,GA,013085,Eastern Time (US & Canada),34.4438,-84.1704,31.78962,-84.422354,31.756023,-84.466984
Decatur,GA,013087,Eastern Time (US & Canada),30.7994,-84.7577,33.793499,-84.2781289,33.751003,-84.3157389
DeKalb,GA,013089,Eastern Time (US & Canada),33.7715,-84.2263,33.970911,-84.023713,33.614666,-84.350224
Dodge,GA,013091,Eastern Time (US & Canada),32.1722,-83.1684,32.4525329,-82.8717899,31.900325,-83.373931
Dooly,GA,013093,Eastern Time (US & Canada),32.1572,-83.7987,32.292175,-83.606112,32.027938,-84.033411
Dougherty,GA,013095,Eastern Time (US & Canada),31.5333,-84.2164,31.650274,-83.981607,31.435856,-84.457662
Douglas,GA,013097,Eastern Time (US & Canada),33.7015,-84.7677,31.555431,-82.813014,31.468351,-82.905501
Early,GA,013099,Eastern Time (US & Canada),31.3229,-84.9037,31.51867,-84.62758,31.07259,-85.1146009
Echols,GA,013101,Eastern Time (US & Canada),30.7101,-82.8939,30.872249,-82.5786919,30.591548,-83.1366199
Effingham,GA,013103,Eastern Time (US & Canada),32.3675,-81.3407,32.595416,-81.119496,32.095886,-81.548006
Elbert,GA,013105,Eastern Time (US & Canada),34.1169,-82.8403,34.2871101,-82.5698489,33.9629394,-83.103287
Emanuel,GA,013107,Eastern Time (US & Canada),32.5898,-82.3018,32.84133,-82.00123590000001,32.291882,-82.647733
Evans,GA,013109,Eastern Time (US & Canada),32.1568,-81.8869,33.54983989999999,-82.0970399,33.478949,-82.186521
Fannin,GA,013111,Eastern Time (US & Canada),34.8641,-84.3197,34.988411,-84.092934,34.602958,-84.622749
Fayette,GA,013113,Eastern Time (US & Canada),33.414,-84.4941,33.550933,-84.38163,33.2565,-84.62722
Floyd,GA,013115,Eastern Time (US & Canada),34.2632,-85.2143,34.587483,-85.005235,34.079133,-85.4622069
Forsyth,GA,013117,Eastern Time (US & Canada),34.2255,-84.1253,33.062533,-83.9050379,33.011232,-83.9668619
Franklin,GA,013119,Eastern Time (US & Canada),34.3755,-83.2292,33.294655,-85.081355,33.26370300000001,-85.115898
Fulton,GA,013121,Eastern Time (US & Canada),33.6085,-84.6065,34.1862889,-84.097692,33.502412,-84.850713
Gilmer,GA,013123,Eastern Time (US & Canada),34.6915,-84.4554,34.8555599,-84.1934809,34.5484949,-84.65709790000001
Glascock,GA,013125,Eastern Time (US & Canada),33.2293,-82.6107,33.32727,-82.431957,33.118881,-82.7558459
Glynn,GA,013127,Eastern Time (US & Canada),31.2698,-81.639,31.453021,-81.2703573,31.0132066,-81.782493
Gordon,GA,013129,Eastern Time (US & Canada),34.5034,-84.8757,32.901852,-83.298529,32.8692659,-83.3683679
Grady,GA,013131,Eastern Time (US & Canada),30.8747,-84.2344,31.078949,-84.072884,30.675804,-84.3807049
Greene,GA,013133,Eastern Time (US & Canada),33.5789,-83.1667,33.7617739,-82.950723,33.35892219999999,-83.406196
Gwinnett,GA,013135,Eastern Time (US & Canada),33.9617,-84.0235,34.1627458,-83.799104,33.752808,-84.27682200000001
Habersham,GA,013137,Eastern Time (US & Canada),34.631,-83.5312,,,,
Hall,GA,013139,Eastern Time (US & Canada),34.3168,-83.8197,34.5140959,-83.61529,34.098281,-84.0554737
Hancock,GA,013141,Eastern Time (US & Canada),33.2703,-83.001,33.469178,-82.7461819,33.049864,-83.27298929999999
Haralson,GA,013143,Eastern Time (US & Canada),33.7942,-85.211,33.238121,-84.557441,33.219665,-84.577803
Harris,GA,013145,Eastern Time (US & Canada),32.736,-84.909,32.872496,-84.6828759,32.583129,-85.1849139
Hart,GA,013147,Eastern Time (US & Canada),34.3511,-82.964,34.492161,-82.777265,34.209705,-83.115847
Heard,GA,013149,Eastern Time (US & Canada),33.297,-85.1283,33.428106,-84.939015,33.129559,-85.2938049
Henry,GA,013151,Eastern Time (US & Canada),33.4534,-84.1554,33.647411,-83.9225,33.2977069,-84.3544
Houston,GA,013153,Eastern Time (US & Canada),32.459,-83.6662,32.692169,-83.4824589,32.2825829,-83.8568509
Irwin,GA,013155,Eastern Time (US & Canada),31.6023,-83.2764,31.769659,-82.9983599,31.471857,-83.500952
Jackson,GA,013157,Eastern Time (US & Canada),34.1339,-83.5663,33.31148900000001,-83.935486,33.263833,-84.0105969
Jasper,GA,013159,Eastern Time (US & Canada),33.3164,-83.6881,34.495305,-84.3843519,34.391746,-84.474651
Jeff Davis,GA,013161,Eastern Time (US & Canada),31.8056,-82.637,31.97168899999999,-82.430452,31.6712809,-82.839122
Jefferson,GA,013163,Eastern Time (US & Canada),33.0549,-82.4181,34.196869,-83.544173,34.082614,-83.6734319
Jenkins,GA,013165,Eastern Time (US & Canada),32.7925,-81.9636,32.953882,-81.7675429,32.60691,-82.147942
Johnson,GA,013167,Eastern Time (US & Canada),32.7015,-82.6601,32.822356,-82.4341489,32.509473,-82.957066
Jones,GA,013169,Eastern Time (US & Canada),33.0251,-83.5605,33.185832,-83.3576849,32.841291,-83.816856
Lamar,GA,013171,Eastern Time (US & Canada),33.0765,-84.1394,33.202824,-84.040914,32.931497,-84.27014
Lanier,GA,013173,Eastern Time (US & Canada),31.038,-83.0626,31.184208,-82.9696589,30.844709,-83.1979949
Laurens,GA,013175,Eastern Time (US & Canada),32.4637,-82.9222,32.7157599,-82.6331259,32.1472739,-83.226536
Lee,GA,013177,Eastern Time (US & Canada),31.7796,-84.141,31.91619,-83.93343809999999,31.621951,-84.338611
Liberty,GA,013179,Eastern Time (US & Canada),31.8508,-81.5352,32.092551,-81.1284089,31.55679019999999,-81.824405
Lincoln,GA,013181,Eastern Time (US & Canada),33.7936,-82.4512,33.983768,-82.2364502,33.6390212,-82.645606
Long,GA,013183,Eastern Time (US & Canada),31.7528,-81.746,32.01488200000001,-81.491798,31.538667,-81.9816209
Lowndes,GA,013185,Eastern Time (US & Canada),30.8339,-83.2677,31.03196399999999,-83.01941900000001,30.623967,-83.4847659
Lumpkin,GA,013187,Eastern Time (US & Canada),34.5721,-84.0031,32.059069,-84.7689779,32.028928,-84.823409
McDuffie,GA,013189,Eastern Time (US & Canada),33.4829,-82.4814,33.65544120000001,-82.294179,33.310879,-82.6488
McIntosh,GA,013191,Eastern Time (US & Canada),31.5278,-81.4877,31.699575,-81.1756145,31.29095299999999,-81.668357
Macon,GA,013193,Eastern Time (US & Canada),32.3584,-84.0425,32.899785,-83.548598,32.765651,-83.739741
Madison,GA,013195,Eastern Time (US & Canada),34.1279,-83.209,33.617931,-83.439211,33.543419,-83.514799
Marion,GA,013197,Eastern Time (US & Canada),32.3534,-84.5246,32.562083,-84.389927,32.1340579,-84.6589829
Meriwether,GA,013199,Eastern Time (US & Canada),33.0406,-84.6883,,,,
Miller,GA,013201,Eastern Time (US & Canada),31.164,-84.7307,31.259505,-84.5371009,31.06800999999999,-84.922423
Mitchell,GA,013205,Eastern Time (US & Canada),31.2254,-84.1942,33.229802,-82.691143,33.209809,-82.715009
Monroe,GA,013207,Eastern Time (US & Canada),33.0141,-83.9187,33.8392679,-83.660302,33.757047,-83.769476
Montgomery,GA,013209,Eastern Time (US & Canada),32.1746,-82.5338,31.9720439,-81.0731189,31.9216382,-81.1342787
Morgan,GA,013211,Eastern Time (US & Canada),33.5908,-83.4924,31.54562,-84.589968,31.52934,-84.621172
Murray,GA,013213,Eastern Time (US & Canada),34.7885,-84.7481,34.988329,-84.582195,34.5831869,-84.944733
Muscogee,GA,013215,Eastern Time (US & Canada),32.51,-84.877,32.6081216,-84.667463,32.373874,-85.0806217
Newton,GA,013217,Eastern Time (US & Canada),33.5551,-83.8503,31.329,-84.3183459,31.299951,-84.352282
Oconee,GA,013219,Eastern Time (US & Canada),33.8349,-83.437,32.865521,-82.940399,32.844459,-82.9743589
Oglethorpe,GA,013221,Eastern Time (US & Canada),33.8807,-83.0806,32.307034,-84.0441379,32.281697,-84.0784429
Paulding,GA,013223,Eastern Time (US & Canada),33.9202,-84.8672,34.082609,-84.723236,33.774758,-85.05031
Peach,GA,013225,Eastern Time (US & Canada),32.5688,-83.8269,32.6928149,-83.70101,32.4391229,-84.01816800000002
Pickens,GA,013227,Eastern Time (US & Canada),34.4643,-84.4656,34.5636809,-84.256867,34.373266,-84.654366
Pierce,GA,013229,Eastern Time (US & Canada),31.3589,-82.2133,31.530699,-81.992114,31.202082,-82.417435
Pike,GA,013231,Eastern Time (US & Canada),33.0922,-84.3892,33.208889,-84.24766,32.968534,-84.538004
Polk,GA,013233,Eastern Time (US & Canada),34.0018,-85.1882,34.100668,-84.922742,33.899212,-85.421852
Pulaski,GA,013235,Eastern Time (US & Canada),32.2328,-83.4764,32.397737,-81.9479549,32.383041,-81.965177
Putnam,GA,013237,Eastern Time (US & Canada),33.3218,-83.3728,33.4831988,-83.14508430000001,33.1683396,-83.5458759
Quitman,GA,013239,Eastern Time (US & Canada),31.8674,-85.0188,30.818738,-83.527496,30.75916,-83.582566
Rabun,GA,013241,Eastern Time (US & Canada),34.8818,-83.4021,35.00065900000001,-83.0982439,34.716882,-83.661672
Randolph,GA,013243,Eastern Time (US & Canada),31.7626,-84.7542,31.93184,-84.535096,31.618643,-84.959324
Richmond,GA,013245,Eastern Time (US & Canada),33.3596,-82.0735,33.544933,-81.8283359,33.227148,-82.353499
Rockdale,GA,013247,Eastern Time (US & Canada),33.6545,-84.0267,33.786054,-83.91323,33.525855,-84.1841429
Schley,GA,013249,Eastern Time (US & Canada),32.262,-84.3149,32.428095,-84.181657,32.158493,-84.4302149
Screven,GA,013251,Eastern Time (US & Canada),32.7507,-81.6119,31.496031,-82.0030939,31.471903,-82.0312259
Seminole,GA,013253,Eastern Time (US & Canada),30.9481,-84.8681,31.075564,-84.7308549,30.7435019,-85.028573
Spalding,GA,013255,Eastern Time (US & Canada),33.2609,-84.2841,33.3526699,-84.0889569,33.1786199,-84.5091039
Stephens,GA,013257,Eastern Time (US & Canada),34.554,-83.2935,34.6851308,-83.1061803,34.461135,-83.4597699
Stewart,GA,013259,Eastern Time (US & Canada),32.0785,-84.8352,32.232953,-84.63112,31.920308,-85.0657992
Sumter,GA,013261,Eastern Time (US & Canada),32.04,-84.1971,32.229703,-83.93084089999999,31.872755,-84.443809
Talbot,GA,013263,Eastern Time (US & Canada),32.6995,-84.533,32.883595,-84.2865159,32.518639,-84.703377
Taliaferro,GA,013265,Eastern Time (US & Canada),33.5662,-82.8787,33.733333,-82.679975,33.438099,-83.014038
Tattnall,GA,013267,Eastern Time (US & Canada),32.0458,-82.0582,32.3188589,-81.761735,31.782607,-82.23503400000001
Taylor,GA,013269,Eastern Time (US & Canada),32.5556,-84.2504,32.7494639,-84.001971,32.372053,-84.45323200000001
Telfair,GA,013271,Eastern Time (US & Canada),31.9298,-82.9389,32.1532739,-82.6455809,31.774629,-83.207583
Terrell,GA,013273,Eastern Time (US & Canada),31.7768,-84.4368,31.967456,-84.258421,31.6209939,-84.6030859
Thomas,GA,013275,Eastern Time (US & Canada),30.8637,-83.9194,31.077937,-83.736158,30.658396,-84.1192449
Tift,GA,013277,Eastern Time (US & Canada),31.4575,-83.5266,31.597921,-83.338728,31.326263,-83.666682
Toombs,GA,013279,Eastern Time (US & Canada),32.1206,-82.3306,32.35383,-82.181912,31.911798,-82.483131
Towns,GA,013281,Eastern Time (US & Canada),34.9167,-83.7373,34.992492,-83.5468829,34.79052,-83.946068
Treutlen,GA,013283,Eastern Time (US & Canada),32.4039,-82.5673,32.512507,-82.38194,32.2935949,-82.7487419
Troup,GA,013285,Eastern Time (US & Canada),33.0335,-85.0283,33.224693,-84.86147,32.866647,-85.23651790000001
Turner,GA,013287,Eastern Time (US & Canada),31.7163,-83.6242,31.854095,-83.452179,31.565492,-83.802223
Twiggs,GA,013289,Eastern Time (US & Canada),32.6672,-83.4272,32.89822,-83.226536,32.4521979,-83.611569
Union,GA,013291,Eastern Time (US & Canada),34.8342,-83.9907,34.987545,-83.780401,34.64082,-84.179047
Upson,GA,013293,Eastern Time (US & Canada),32.8813,-84.2993,33.0041499,-84.1222459,32.690018,-84.534397
Walker,GA,013295,Eastern Time (US & Canada),34.7356,-85.3009,34.985175,-85.0504459,34.581916,-85.534089
Ware,GA,013299,Eastern Time (US & Canada),31.0535,-82.4238,31.469381,-82.131698,30.568481,-82.70105
Warren,GA,013301,Eastern Time (US & Canada),33.4089,-82.6767,33.6114369,-82.3838289,33.25344,-82.8666049
Washington,GA,013303,Eastern Time (US & Canada),32.9695,-82.7959,33.7568209,-82.7132029,33.705673,-82.783627
Wayne,GA,013305,Eastern Time (US & Canada),31.5515,-81.9168,31.829308,-81.61201,31.327101,-82.147948
Webster,GA,013307,Eastern Time (US & Canada),32.0466,-84.551,32.233103,-84.431214,31.919167,-84.6558199
Wheeler,GA,013309,Eastern Time (US & Canada),32.1171,-82.7246,32.3102736,-82.5391839,31.918883,-82.940242
White,GA,013311,Eastern Time (US & Canada),34.6464,-83.7472,34.293214,-84.735781,34.27041,-84.757032
Whitfield,GA,013313,Eastern Time (US & Canada),34.8056,-84.9673,34.9880039,-84.8107419,34.615719,-85.1688509
Wilcox,GA,013315,Eastern Time (US & Canada),31.9733,-83.4322,32.133432,-83.176693,31.844626,-83.612256
Wilkes,GA,013317,Eastern Time (US & Canada),33.782,-82.7432,33.991402,-82.48041529999999,33.596071,-82.987286
Wilkinson,GA,013319,Eastern Time (US & Canada),32.8024,-83.1713,33.0087909,-82.945098,32.584201,-83.4069899
Worth,GA,013321,Eastern Time (US & Canada),31.5515,-83.851,31.849586,-83.64935500000001,31.318365,-84.032872
Hawaii,HI,015001,Hawaii,19.5371,-155.8769,20.2684685,-154.8066216,18.9106899,-156.0618116
Honolulu,HI,015003,Hawaii,21.4654,-158.1814,21.4012299,-157.6485225,21.2549061,-157.9494185
Kauai,HI,015007,Hawaii,21.897,-160.157,22.2353064,-159.2921005,21.63417,-160.5543298
Maui,HI,015009,Hawaii,21.1376,-157.1051,21.2241557,-155.9759194,20.5008381,-157.3108649
Ada,ID,016001,Mountain Time (US & Canada),43.1035,-115.8643,43.8074699,-115.974239,43.112238,-116.514055
Adams,ID,016003,Mountain Time (US & Canada),44.476,-116.5799,45.268127,-116.0893081,44.443849,-116.8984665
Bannock,ID,016005,Mountain Time (US & Canada),43.0084,-112.6689,43.022379,-111.875428,42.256571,-112.6743784
Bear Lake,ID,016007,Mountain Time (US & Canada),42.2698,-111.426,42.6031149,-111.046689,41.9995179,-111.634939
Benewah,ID,016009,Pacific Time (US & Canada),46.9308,-116.8785,47.4146609,-116.3289599,47.022039,-117.0400191
Bingham,ID,016011,Mountain Time (US & Canada),43.0084,-112.6689,43.6267859,-111.587795,42.8630159,-113.007995
Blaine,ID,016013,Mountain Time (US & Canada),43.5946,-114.2949,43.992978,-113.007282,42.6173432,-114.996569
Boise,ID,016015,Mountain Time (US & Canada),43.7521,-115.4718,43.689895,-116.101909,43.511717,-116.365887
Bonner,ID,016017,Pacific Time (US & Canada),48.4447,-116.5661,48.847428,-116.048739,47.890071,-117.042247
Bonneville,ID,016019,Mountain Time (US & Canada),43.6096,-112.4773,43.627271,-111.043937,43.019284,-112.520491
Boundary,ID,016021,Pacific Time (US & Canada),48.4447,-116.5661,49.001146,-116.048898,48.50009,-117.032442
Butte,ID,016023,Mountain Time (US & Canada),44.1129,-113.6143,44.234156,-112.69493,43.284577,-113.798031
Camas,ID,016025,Mountain Time (US & Canada),43.7521,-115.4718,43.8586109,-114.374615,43.197699,-115.086809
Canyon,ID,016027,Mountain Time (US & Canada),43.7962,-116.692,43.880237,-116.473393,43.290253,-117.032578
Caribou,ID,016029,Mountain Time (US & Canada),42.9258,-111.6505,43.0223839,-111.043495,42.415818,-112.149807
Cassia,ID,016031,Mountain Time (US & Canada),42.9647,-113.7731,42.6733939,-113.000728,41.988005,-114.286683
Clark,ID,016033,Mountain Time (US & Canada),44.1785,-111.8194,44.5716309,-111.617074,43.9719399,-112.995402
Clearwater,ID,016035,,46.2094,-116.0712,46.934605,-114.594714,46.265718,-116.4558931
Custer,ID,016037,Mountain Time (US & Canada),44.2282,-114.5741,44.8791219,-113.320672,43.568818,-115.305042
Elmore,ID,016039,Mountain Time (US & Canada),43.1035,-115.8643,44.09868489999999,-114.971258,42.76771,-116.267466
Franklin,ID,016041,Mountain Time (US & Canada),42.1271,-111.942,42.02654800000001,-111.790996,42.010874,-111.815537
Fremont,ID,016043,Mountain Time (US & Canada),44.1785,-111.8194,44.755136,-111.0470441,43.883206,-112.15637
Gem,ID,016045,Mountain Time (US & Canada),43.7962,-116.692,44.504452,-116.152171,43.8068559,-116.712757
Gooding,ID,016047,Mountain Time (US & Canada),42.7508,-114.5943,42.94948489999999,-114.698062,42.919782,-114.727635
Idaho,ID,016049,,45.6641,-116.4493,46.6710609,-114.320252,45.10756689999999,-116.794562
Jefferson,ID,016051,Mountain Time (US & Canada),43.6096,-112.4773,44.058454,-111.626138,43.623011,-112.697408
Jerome,ID,016053,Mountain Time (US & Canada),42.7508,-114.5943,42.74663700000001,-114.492326,42.68056989999999,-114.538134
Kootenai,ID,016055,Pacific Time (US & Canada),47.6003,-116.8182,48.3176829,-116.507183,48.30513500000001,-116.529007
Latah,ID,016057,Pacific Time (US & Canada),46.9308,-116.8785,47.130783,-116.329279,46.541785,-117.0399781
Lemhi,ID,016059,Mountain Time (US & Canada),45.1209,-114.3901,,,,
Lewis,ID,016061,Pacific Time (US & Canada),46.1926,-116.5889,46.469245,-116.012665,45.99157700000001,-116.713724
Lincoln,ID,016063,Mountain Time (US & Canada),42.9647,-113.7731,,,,
Madison,ID,016065,Mountain Time (US & Canada),43.6096,-112.4773,43.9302129,-111.398713,43.621905,-111.983385
Minidoka,ID,016067,Mountain Time (US & Canada),42.9647,-113.7731,42.756246,-113.486624,42.751261,-113.4920791
Nez Perce,ID,016069,Pacific Time (US & Canada),46.4507,-116.7031,46.238298,-116.233021,46.226388,-116.247571
Oneida,ID,016071,Mountain Time (US & Canada),42.2838,-113.1402,42.503046,-112.070542,41.9965679,-113.000834
Owyhee,ID,016073,Mountain Time (US & Canada),42.9537,-116.7748,43.6808629,-115.03731,41.99601089999999,-117.027014
Payette,ID,016075,Mountain Time (US & Canada),43.7962,-116.692,44.100108,-116.898052,44.054628,-116.954958
Power,ID,016077,Mountain Time (US & Canada),42.2838,-113.1402,43.111109,-112.379531,42.3273839,-113.243846
Shoshone,ID,016079,Pacific Time (US & Canada),47.3003,-116.1291,42.947102,-114.395042,42.926192,-114.417883
Teton,ID,016081,Mountain Time (US & Canada),44.1785,-111.8194,43.8907,-111.658374,43.883486,-111.678065
Twin Falls,ID,016083,Mountain Time (US & Canada),42.2255,-114.6784,42.606421,-114.4014729,42.5162819,-114.509264
Valley,ID,016085,Mountain Time (US & Canada),44.7716,-115.8966,45.219699,-114.694126,44.147641,-116.213049
Washington,ID,016087,Mountain Time (US & Canada),43.7962,-116.692,44.8405719,-116.299552,44.151066,-117.2413658
Adams,IL,017001,Central Time (US & Canada),39.9878,-91.1886,40.200486,-90.911969,39.75683,-91.5130789
Alexander,IL,017003,Central Time (US & Canada),37.1915,-89.3376,39.7267879,-90.0255548,39.7178238,-90.046156
Bond,IL,017005,Central Time (US & Canada),38.8868,-89.4356,39.028366,-89.2503639,38.7405399,-89.639292
Boone,IL,017007,Central Time (US & Canada),42.3231,-88.8234,42.4950509,-88.705186,42.1523429,-88.940997
Brown,IL,017009,Central Time (US & Canada),39.9618,-90.7504,40.105768,-90.510442,39.8393019,-90.916884
Bureau,IL,017011,Central Time (US & Canada),41.4041,-89.5287,41.585383,-89.1637049,41.1485099,-89.8624409
Calhoun,IL,017013,Central Time (US & Canada),39.1692,-90.6675,38.65882089999999,-88.033087,38.643495,-88.0523269
Carroll,IL,017015,Central Time (US & Canada),42.0688,-89.9345,42.199112,-89.684944,41.928917,-90.317202
Cass,IL,017017,Central Time (US & Canada),39.9736,-90.2474,40.125292,-89.994405,39.87224700000001,-90.583534
Champaign,IL,017019,Central Time (US & Canada),40.1401,-88.1991,40.167074,-88.22104,40.062188,-88.333179
Christian,IL,017021,Central Time (US & Canada),39.5458,-89.2773,39.826085,-89.024059,39.346095,-89.5352149
Clark,IL,017023,Central Time (US & Canada),39.3335,-87.7878,39.487392,-87.53135490000001,39.1574308,-88.0142049
Clay,IL,017025,Central Time (US & Canada),38.7542,-88.4902,38.91530300000001,-88.2487319,38.5993009,-88.6984569
Clinton,IL,017027,Central Time (US & Canada),38.6065,-89.4224,40.165867,-88.936396,40.132259,-88.996932
Coles,IL,017029,Central Time (US & Canada),39.5202,-88.2218,,,,
Cook,IL,017031,Central Time (US & Canada),41.8399,-87.8167,42.1543239,-87.5240439,41.46953389999999,-88.2634779
Crawford,IL,017033,Central Time (US & Canada),39.0028,-87.7595,39.17922,-87.51213,38.8488569,-87.9504039
Cumberland,IL,017035,Central Time (US & Canada),39.2732,-88.2402,39.378971,-88.00776700000002,39.17087,-88.4712139
De Kalb,IL,017037,Central Time (US & Canada),41.8934,-88.7704,41.971772,-88.694661,41.8845819,-88.79795
De Witt,IL,017039,Central Time (US & Canada),40.1746,-88.9041,40.192004,-88.7829139,40.177485,-88.7881549
Douglas,IL,017041,Central Time (US & Canada),39.7695,-88.2174,,,,
DuPage,IL,017043,Central Time (US & Canada),41.852,-88.0857,41.994029,-87.91425690000001,41.68533,-88.263178
Edgar,IL,017045,Central Time (US & Canada),39.6786,-87.7456,,,,
Edwards,IL,017047,Central Time (US & Canada),38.4165,-88.0532,38.570552,-87.9370979,38.25566,-88.1509
Effingham,IL,017049,Central Time (US & Canada),39.0597,-88.5899,39.167887,-88.504549,39.0692139,-88.603076
Fayette,IL,017051,Central Time (US & Canada),39.0002,-89.0242,39.217911,-88.6935309,38.7363299,-89.25739999999999
Ford,IL,017053,Central Time (US & Canada),40.5972,-88.2233,40.9977609,-87.931631,40.398478,-88.459957
Franklin,IL,017055,Central Time (US & Canada),37.9923,-88.9242,39.63236200000001,-90.035196,39.615153,-90.0589739
Fulton,IL,017057,Central Time (US & Canada),40.4728,-90.2075,41.882073,-90.142945,41.8397719,-90.1700209
Gallatin,IL,017059,Central Time (US & Canada),37.7628,-88.2305,37.9160229,-88.025921,37.573025,-88.375332
Greene,IL,017061,Central Time (US & Canada),39.3562,-90.3905,39.521803,-90.1480689,39.1175919,-90.6222899
Grundy,IL,017063,Central Time (US & Canada),41.2849,-88.4185,41.463111,-88.240906,41.108298,-88.59595990000001
Hamilton,IL,017065,Central Time (US & Canada),38.0816,-88.5392,40.41151989999999,-91.324623,40.375667,-91.421973
Hancock,IL,017067,Central Time (US & Canada),40.4037,-91.1647,40.639202,-90.9042159,40.193086,-91.5072689
Hardin,IL,017069,Central Time (US & Canada),37.5182,-88.2669,39.1836289,-90.606506,39.145364,-90.641843
Henderson,IL,017071,Central Time (US & Canada),40.8181,-90.9251,41.02897,-90.3486719,41.019448,-90.36066
Henry,IL,017073,Central Time (US & Canada),41.3531,-90.1314,41.1317809,-89.341143,41.1038666,-89.3778969
Iroquois,IL,017075,Central Time (US & Canada),40.7474,-87.8243,40.83477,-87.576904,40.817377,-87.591233
Jackson,IL,017077,Central Time (US & Canada),37.7852,-89.3821,37.95531,-89.1505789,37.561982,-89.680919
Jasper,IL,017079,Central Time (US & Canada),39.01,-88.1538,39.174898,-87.945031,38.846877,-88.3627789
Jefferson,IL,017081,Central Time (US & Canada),38.3006,-88.924,38.47694,-88.698961,38.123748,-89.149751
Jersey,IL,017083,Central Time (US & Canada),39.0856,-90.3566,39.262124,-90.145842,38.923395,-90.6035689
Jo Daviess,IL,017085,Central Time (US & Canada),42.3657,-90.2123,42.5083379,-89.919603,42.19357189999999,-90.656527
Johnson,IL,017087,Central Time (US & Canada),37.4596,-88.8809,37.600682,-88.708546,37.294163,-89.044804
Kane,IL,017089,Central Time (US & Canada),41.939,-88.4287,39.196166,-90.341476,39.181562,-90.36031
Kankakee,IL,017091,Central Time (US & Canada),41.1377,-87.8618,41.145008,-87.8213399,41.047032,-87.921583
Kendall,IL,017093,Central Time (US & Canada),41.5906,-88.4289,41.724652,-88.252099,41.457034,-88.6036199
Knox,IL,017095,Central Time (US & Canada),40.9318,-90.2133,41.152156,-89.98452200000001,40.712257,-90.4443369
Lake,IL,017097,Central Time (US & Canada),42.3231,-88.0036,42.49563690000001,-87.7591594,42.152361,-88.19976290000001
La Salle,IL,017099,Central Time (US & Canada),41.3439,-88.8859,41.390355,-89.01012100000001,41.321002,-89.1163129
Lawrence,IL,017101,Central Time (US & Canada),38.72,-87.7266,,,,
Lee,IL,017103,Central Time (US & Canada),41.7461,-89.3005,41.802327,-88.935127,41.788423,-88.950712
Livingston,IL,017105,Central Time (US & Canada),40.8914,-88.5578,38.97598,-89.754764,38.95906189999999,-89.773468
Logan,IL,017107,Central Time (US & Canada),40.1245,-89.3676,,,,
McDonough,IL,017109,Central Time (US & Canada),40.4562,-90.678,40.639201,-90.445506,40.27633489999999,-90.90975600000002
McHenry,IL,017111,Central Time (US & Canada),42.3244,-88.4524,42.372085,-88.238196,42.2993949,-88.345601
McLean,IL,017113,Central Time (US & Canada),40.4908,-88.8473,40.319966,-89.159801,40.30925,-89.1790099
Macon,IL,017115,Central Time (US & Canada),39.8599,-88.9617,39.71654100000001,-88.982269,39.697871,-89.0075119
Macoupin,IL,017117,Central Time (US & Canada),39.261,-89.9244,39.5233689,-89.6983829,38.998349,-90.15375
Madison,IL,017119,Central Time (US & Canada),38.8299,-89.9051,38.795006,-90.077078,38.63861190000001,-90.210955
Marion,IL,017121,Central Time (US & Canada),38.6496,-88.919,37.767955,-88.8090479,37.5763339,-89.021829
Marshall,IL,017123,Central Time (US & Canada),41.0332,-89.3448,39.435034,-87.6612509,39.371784,-87.71459600000001
Mason,IL,017125,Central Time (US & Canada),40.2397,-89.9168,38.960889,-88.616208,38.944413,-88.6360969
Massac,IL,017127,Central Time (US & Canada),37.219,-88.7078,37.3370899,-88.49010009999999,37.0654339,-88.9291289
Menard,IL,017129,Central Time (US & Canada),40.0274,-89.8022,40.1607259,-89.578338,39.901505,-89.995041
Mercer,IL,017131,Central Time (US & Canada),41.2053,-90.7414,41.3333609,-90.4338679,41.063645,-91.1141859
Monroe,IL,017133,Central Time (US & Canada),38.2785,-90.1774,38.522327,-89.89715149999999,38.087969,-90.3740809
Montgomery,IL,017135,Central Time (US & Canada),39.231,-89.4789,41.74489,-88.28118800000001,41.6990989,-88.428839
Morgan,IL,017137,Central Time (US & Canada),39.7156,-90.2015,39.87675,-89.9239549,39.51989289999999,-90.599105
Moultrie,IL,017139,Central Time (US & Canada),39.6414,-88.6194,39.792083,-88.470506,39.447043,-88.812899
Ogle,IL,017141,Central Time (US & Canada),42.0427,-89.3207,42.204246,-88.938935,41.88600100000001,-89.688486
Peoria,IL,017143,Central Time (US & Canada),40.7881,-89.76,40.844136,-89.5487223,40.651938,-89.69828100000001
Perry,IL,017145,Central Time (US & Canada),38.0838,-89.3671,39.786248,-90.7369329,39.777955,-90.7552219
Piatt,IL,017147,Central Time (US & Canada),40.0104,-88.5911,40.281935,-88.4604179,39.7915799,-88.7462259
Pike,IL,017149,Central Time (US & Canada),39.6225,-90.8863,39.845075,-90.565737,39.395669,-91.370102
Pope,IL,017151,Central Time (US & Canada),37.4126,-88.5615,37.600214,-88.4121119,37.067198,-88.7107439
Pulaski,IL,017153,Central Time (US & Canada),37.2228,-89.1267,37.225176,-89.1987489,37.2068129,-89.217208
Putnam,IL,017155,Central Time (US & Canada),41.2045,-89.2858,41.1893116,-89.3890026,41.1776327,-89.403656
Randolph,IL,017157,Central Time (US & Canada),38.0521,-89.8253,,,,
Richland,IL,017159,Central Time (US & Canada),38.7124,-88.085,38.85024689999999,-87.9081099,38.569033,-88.297399
Rock Island,IL,017161,Central Time (US & Canada),41.4674,-90.5674,41.515332,-90.5315339,41.414933,-90.6522899
St. Clair,IL,017163,Central Time (US & Canada),38.4703,-89.9284,38.6606499,-89.7032469,38.219418,-90.2663709
Saline,IL,017165,Central Time (US & Canada),37.7533,-88.5408,37.90775,-88.373772,37.599087,-88.7086379
Sangamon,IL,017167,Central Time (US & Canada),39.7582,-89.6589,39.9767359,-89.2173739,39.5220519,-89.994524
Schuyler,IL,017169,Central Time (US & Canada),40.158,-90.6151,40.28439400000001,-90.199556,39.9788299,-90.9136159
Scott,IL,017171,Central Time (US & Canada),39.6442,-90.4747,39.790096,-90.3006659,39.520192,-90.646112
Shelby,IL,017173,Central Time (US & Canada),39.3911,-88.8055,39.6543629,-88.47042800000001,39.214915,-89.140075
Stark,IL,017175,Central Time (US & Canada),41.0934,-89.7975,41.234483,-89.638429,40.973701,-89.985677
Stephenson,IL,017177,Central Time (US & Canada),42.3517,-89.6625,42.50582,-89.396249,42.195858,-89.9266409
Tazewell,IL,017179,Central Time (US & Canada),40.5075,-89.5135,40.748388,-89.26374,40.319212,-89.92468
Union,IL,017181,Central Time (US & Canada),37.4712,-89.2551,42.240761,-88.535541,42.225902,-88.550744
Vermilion,IL,017183,Central Time (US & Canada),40.1836,-87.7329,39.58622200000001,-87.579359,39.5737899,-87.596244
Wabash,IL,017185,Central Time (US & Canada),38.4461,-87.8443,38.570206,-87.645118,38.236297,-87.992226
Warren,IL,017187,Central Time (US & Canada),40.8488,-90.615,42.502998,-89.978432,42.482774,-90.0015279
Washington,IL,017189,Central Time (US & Canada),38.3522,-89.4105,40.7352459,-89.377488,40.674965,-89.483949
Wayne,IL,017191,Central Time (US & Canada),38.4295,-88.4256,41.9763049,-88.202697,41.929562,-88.312533
White,IL,017193,Central Time (US & Canada),38.0875,-88.1795,38.2598119,-87.910623,37.888051,-88.3746939
Whiteside,IL,017195,Central Time (US & Canada),41.7563,-89.9141,41.93166600000001,-89.6291519,41.583455,-90.247918
Will,IL,017197,Central Time (US & Canada),41.445,-87.9787,41.72893,-87.525302,41.2015529,-88.2614679
Williamson,IL,017199,Central Time (US & Canada),37.7303,-88.9299,38.9984899,-89.7548669,38.97586,-89.77395
Winnebago,IL,017201,Central Time (US & Canada),42.3363,-89.1609,42.2814939,-89.2250189,42.255485,-89.251533
Woodford,IL,017203,Central Time (US & Canada),40.7882,-89.2111,,,,
Adams,IN,018001,Eastern Time (US & Canada),40.7455,-84.9366,40.922568,-84.802093,40.56823989999999,-85.0738669
Allen,IN,018003,Eastern Time (US & Canada),41.0908,-85.0665,41.27127300000001,-84.802922,40.9164309,-85.3385519
Bartholomew,IN,018005,Eastern Time (US & Canada),39.2059,-85.8977,39.3502669,-85.684552,39.035858,-86.085601
Benton,IN,018007,Eastern Time (US & Canada),40.6063,-87.3109,40.7369739,-87.09356,40.475629,-87.5265019
Blackford,IN,018009,Eastern Time (US & Canada),40.4735,-85.3248,40.567329,-85.200614,40.378222,-85.447014
Boone,IN,018011,Eastern Time (US & Canada),40.0508,-86.4687,40.1807779,-86.239739,39.922638,-86.695832
Brown,IN,018013,Eastern Time (US & Canada),39.1962,-86.2274,39.344189,-86.07903,39.0483569,-86.381395
Carroll,IN,018015,Eastern Time (US & Canada),40.5828,-86.5635,40.737589,-86.3734389,40.430979,-86.7742509
Cass,IN,018017,Eastern Time (US & Canada),40.7615,-86.346,40.910925,-86.165024,40.5613309,-86.581739
Clark,IN,018019,Eastern Time (US & Canada),38.4773,-85.7073,38.606741,-85.415472,38.2671719,-85.994681
Clay,IN,018021,Eastern Time (US & Canada),39.3928,-87.1158,39.607137,-86.939981,39.167955,-87.2407449
Clinton,IN,018023,Eastern Time (US & Canada),40.3017,-86.4752,39.689107,-87.3938649,39.6370359,-87.432457
Crawford,IN,018025,Eastern Time (US & Canada),38.2923,-86.4517,38.4229629,-86.245555,38.105315,-86.6814239
Daviess,IN,018027,Eastern Time (US & Canada),38.7024,-87.0721,38.904196,-86.904123,38.49037,-87.279415
Dearborn,IN,018029,Eastern Time (US & Canada),39.1453,-84.9733,39.307232,-84.819277,38.935351,-85.132508
Decatur,IN,018031,Eastern Time (US & Canada),39.3069,-85.5013,40.850412,-84.8882089,40.8028909,-84.964418
De Kalb,IN,018033,Eastern Time (US & Canada),41.3976,-84.9991,41.5302979,-84.8035879,41.2642219,-85.19409999999999
Delaware,IN,018035,Eastern Time (US & Canada),40.2276,-85.3969,40.3795239,-85.2143859,40.07636189999999,-85.578919
Dubois,IN,018037,Central Time (US & Canada),38.3643,-86.8798,38.526471,-86.6789919,38.202919,-87.0732759
Elkhart,IN,018039,Eastern Time (US & Canada),41.5974,-85.8587,41.738664,-85.8881679,41.6376489,-86.0423019
Fayette,IN,018041,Eastern Time (US & Canada),39.6401,-85.1787,,,,
Floyd,IN,018043,Eastern Time (US & Canada),38.3194,-85.9068,38.4190789,-85.760536,38.1798209,-86.033175
Fountain,IN,018045,Eastern Time (US & Canada),40.1209,-87.2419,40.3666709,-87.090008,39.952452,-87.4401
Franklin,IN,018047,Eastern Time (US & Canada),39.4148,-85.0603,39.542448,-86.002754,39.46006300000001,-86.093807
Fulton,IN,018049,Eastern Time (US & Canada),41.047,-86.2636,40.9504419,-86.2589969,40.940681,-86.2688639
Gibson,IN,018051,Central Time (US & Canada),38.3118,-87.5846,38.533519,-87.3156609,38.165379,-87.988164
Grant,IN,018053,Eastern Time (US & Canada),40.5158,-85.6548,40.653667,-85.4443299,40.378367,-85.864791
Greene,IN,018055,Eastern Time (US & Canada),39.0363,-86.962,,,,
Hamilton,IN,018057,Eastern Time (US & Canada),40.0725,-86.052,41.5616039,-84.900148,41.5213309,-84.9366149
Hancock,IN,018059,Eastern Time (US & Canada),39.8235,-85.7732,39.945864,-85.5761919,39.697136,-85.9540129
Harrison,IN,018061,Eastern Time (US & Canada),38.1952,-86.1113,,,,
Hendricks,IN,018063,Eastern Time (US & Canada),39.7695,-86.51,39.924169,-86.325373,39.60075,-86.695334
Henry,IN,018065,Eastern Time (US & Canada),39.9311,-85.3965,40.077143,-85.20031,39.786519,-85.5969449
Howard,IN,018067,Eastern Time (US & Canada),40.4836,-86.1169,,,,
Huntington,IN,018069,Eastern Time (US & Canada),40.8292,-85.4881,40.912437,-85.441279,40.85124800000001,-85.539062
Jackson,IN,018071,Eastern Time (US & Canada),38.9064,-86.0376,39.07125389999999,-85.795233,38.725026,-86.318133
Jasper,IN,018073,Central Time (US & Canada),41.023,-87.1162,38.436824,-86.8954299,38.357445,-86.984257
Jay,IN,018075,Eastern Time (US & Canada),40.438,-85.0057,40.572213,-84.802477,40.30670600000001,-85.220028
Jefferson,IN,018077,Eastern Time (US & Canada),38.7858,-85.4385,,,,
Jennings,IN,018079,Eastern Time (US & Canada),38.9969,-85.6281,39.195617,-85.439905,38.8069859,-85.7998339
Johnson,IN,018081,Eastern Time (US & Canada),39.4899,-86.1017,39.638345,-85.95077800000001,39.3416719,-86.251684
Knox,IN,018083,Eastern Time (US & Canada),38.6891,-87.418,41.306394,-86.5880399,41.2761299,-86.6496849
Kosciusko,IN,018085,Eastern Time (US & Canada),41.2441,-85.8607,41.436856,-85.6511929,41.0418779,-86.077551
Lagrange,IN,018087,Eastern Time (US & Canada),41.6427,-85.4265,41.670389,-85.4026219,41.631605,-85.427655
Lake,IN,018089,Central Time (US & Canada),41.4156,-87.3817,41.7100282,-87.218791,41.1621979,-87.5267679
La Porte,IN,018091,Central Time (US & Canada),41.546,-86.7399,41.638954,-86.6734029,41.5607479,-86.76364199999999
Lawrence,IN,018093,Eastern Time (US & Canada),38.8412,-86.4834,39.913041,-85.93806690000001,39.82775700000001,-86.055504
Madison,IN,018095,Eastern Time (US & Canada),40.1616,-85.7194,38.7895449,-85.3636159,38.7186309,-85.45029
Marion,IN,018097,Eastern Time (US & Canada),39.7816,-86.1384,40.591091,-85.5395499,40.479037,-85.7315759
Marshall,IN,018099,Eastern Time (US & Canada),41.325,-86.2618,39.85351,-87.179749,39.841625,-87.1929739
Martin,IN,018101,Eastern Time (US & Canada),38.708,-86.8031,38.904697,-86.6823529,38.494785,-86.9243599
Miami,IN,018103,Eastern Time (US & Canada),40.7695,-86.0451,40.6190708,-86.1026006,40.6091447,-86.1089471
Monroe,IN,018105,Eastern Time (US & Canada),39.1609,-86.5231,40.752319,-84.9294039,40.737739,-84.9512989
Montgomery,IN,018107,Eastern Time (US & Canada),40.0404,-86.8933,38.669739,-87.0427629,38.659684,-87.0557049
Morgan,IN,018109,Eastern Time (US & Canada),39.4815,-86.4462,39.633645,-86.249746,39.338291,-86.687586
Newton,IN,018111,Central Time (US & Canada),40.9559,-87.3975,41.2186,-87.267245,40.736464,-87.52672
Noble,IN,018113,Eastern Time (US & Canada),41.3986,-85.4174,,,,
Ohio,IN,018115,Eastern Time (US & Canada),38.9501,-84.965,40.6983734,-80.0172943,36.98790899999999,-89.1831273
Orange,IN,018117,Eastern Time (US & Canada),38.5418,-86.4951,,,,
Owen,IN,018119,Eastern Time (US & Canada),39.3129,-86.8376,39.4733449,-86.630719,39.16571,-87.054891
Parke,IN,018121,Eastern Time (US & Canada),39.7736,-87.2063,39.953379,-87.0094769,39.604769,-87.434162
Perry,IN,018123,Central Time (US & Canada),38.0797,-86.638,38.266328,-86.4300899,37.8414129,-86.814813
Pike,IN,018125,Central Time (US & Canada),38.3988,-87.2322,,,,
Porter,IN,018127,Central Time (US & Canada),41.4605,-87.0671,41.6618061,-87.0430339,41.596869,-87.105857
Posey,IN,018129,Central Time (US & Canada),38.0218,-87.8684,38.230354,-87.6881949,37.7717419,-88.097892
Pulaski,IN,018131,Central Time (US & Canada),41.0419,-86.6989,41.172318,-86.467045,40.909712,-86.931018
Putnam,IN,018133,Eastern Time (US & Canada),39.6663,-86.845,39.86670489999999,-86.641532,39.470057,-87.014729
Randolph,IN,018135,Eastern Time (US & Canada),40.1576,-85.0114,40.310091,-84.803665,40.004142,-85.2187579
Ripley,IN,018137,Eastern Time (US & Canada),39.1034,-85.2624,39.310469,-85.0651,38.9129919,-85.444897
Rush,IN,018139,Eastern Time (US & Canada),39.6199,-85.4657,39.78758089999999,-85.2975929,39.45231589999999,-85.6334909
St. Joseph,IN,018141,Eastern Time (US & Canada),41.6167,-86.2898,41.760697,-86.05944000000001,41.432792,-86.5266819
Scott,IN,018143,Eastern Time (US & Canada),38.6851,-85.7474,,,,
Shelby,IN,018145,Eastern Time (US & Canada),39.5236,-85.7918,39.6990679,-85.629071,39.347377,-85.953165
Spencer,IN,018147,Central Time (US & Canada),38.0142,-87.0077,39.2934009,-86.7502109,39.274861,-86.787949
Starke,IN,018149,Central Time (US & Canada),41.281,-86.6478,41.43302389999999,-86.46627090000001,41.1713309,-86.9301699
Steuben,IN,018151,Eastern Time (US & Canada),41.6439,-85.0008,41.760171,-84.804704,41.526437,-85.1967739
Sullivan,IN,018153,Eastern Time (US & Canada),39.0888,-87.4146,39.115738,-87.3908319,39.0811799,-87.4192449
Switzerland,IN,018155,Eastern Time (US & Canada),38.8262,-85.037,38.929578,-84.784662,38.6874789,-85.2036059
Tippecanoe,IN,018157,Eastern Time (US & Canada),40.3886,-86.8941,40.56294,-86.6945679,40.2143609,-87.095248
Tipton,IN,018159,Eastern Time (US & Canada),40.3114,-86.0519,40.297539,-86.019364,40.267342,-86.069845
Union,IN,018161,Eastern Time (US & Canada),39.6255,-84.9251,,,,
Vanderburgh,IN,018163,Central Time (US & Canada),38.0254,-87.5857,38.168419,-87.449411,37.825789,-87.7006969
Vermillion,IN,018165,Eastern Time (US & Canada),39.8538,-87.464,40.148421,-87.3538629,39.6072909,-87.53327
Vigo,IN,018167,Eastern Time (US & Canada),39.4306,-87.39,,,,
Wabash,IN,018169,Eastern Time (US & Canada),40.8457,-85.794,40.832062,-85.7938099,40.77093989999999,-85.891351
Warren,IN,018171,Eastern Time (US & Canada),40.3469,-87.3533,40.69734589999999,-85.411042,40.6698869,-85.4396359
Warrick,IN,018173,Central Time (US & Canada),38.0922,-87.2721,38.246123,-87.0174229,37.87890489999999,-87.473238
Washington,IN,018175,Eastern Time (US & Canada),38.6,-86.1053,38.675264,-87.1383089,38.641566,-87.208556
Wayne,IN,018177,Eastern Time (US & Canada),39.8644,-85.0099,40.006357,-84.810825,39.7147639,-85.221136
Wells,IN,018179,Eastern Time (US & Canada),40.7291,-85.2212,40.91782389999999,-85.068479,40.566832,-85.448993
White,IN,018181,Eastern Time (US & Canada),40.7499,-86.8654,40.912496,-86.5803469,40.56149600000001,-87.0998829
Whitley,IN,018183,Eastern Time (US & Canada),41.1394,-85.5052,41.295373,-85.3077809,41.0018839,-85.6865739
Adair,IA,019001,Central Time (US & Canada),41.3307,-94.471,41.511188,-94.628862,41.4895179,-94.657816
Adams,IA,019003,Central Time (US & Canada),41.029,-94.6992,41.158508,-94.470435,40.8993309,-94.9286039
Allamakee,IA,019005,Central Time (US & Canada),43.2843,-91.3781,43.5010149,-91.0579099,43.080247,-91.6110229
Appanoose,IA,019007,Central Time (US & Canada),40.7432,-92.8687,40.898886,-92.637817,40.5840139,-93.097944
Audubon,IA,019009,Central Time (US & Canada),41.6846,-94.9058,41.730317,-94.9135809,41.7029939,-94.942104
Benton,IA,019011,Central Time (US & Canada),42.0801,-92.0657,40.7127569,-94.352318,40.6970819,-94.371139
Black Hawk,IA,019013,Central Time (US & Canada),42.4701,-92.3085,42.642752,-92.0640959,42.297001,-92.554655
Boone,IA,019015,Central Time (US & Canada),42.0366,-93.9318,42.078297,-93.839556,42.02403289999999,-93.917677
Bremer,IA,019017,Central Time (US & Canada),42.7747,-92.3182,42.907271,-92.081401,42.6419519,-92.554799
Buchanan,IA,019019,Central Time (US & Canada),42.4707,-91.8379,42.6439729,-91.596981,42.29627989999999,-92.08243
Buena Vista,IA,019021,Central Time (US & Canada),42.7355,-95.1513,42.910139,-94.9138229,42.5603089,-95.3882539
Butler,IA,019023,Central Time (US & Canada),42.7316,-92.7902,42.90754889999999,-92.554141,42.555782,-93.027
Calhoun,IA,019025,Central Time (US & Canada),42.3852,-94.6405,42.5603089,-94.397092,42.2090819,-94.914726
Carroll,IA,019027,Central Time (US & Canada),42.0362,-94.8607,42.0961939,-94.8376179,42.044509,-94.898319
Cass,IA,019029,Central Time (US & Canada),41.3315,-94.9278,41.50523889999999,-94.7000729,41.157903,-95.155851
Cedar,IA,019031,Central Time (US & Canada),41.7723,-91.1324,,,,
Cerro Gordo,IA,019033,Central Time (US & Canada),43.0816,-93.2608,43.255707,-93.0229679,42.907495,-93.498604
Cherokee,IA,019035,Central Time (US & Canada),42.7357,-95.6239,42.77343,-95.524997,42.7142319,-95.583861
Chickasaw,IA,019037,Central Time (US & Canada),43.0601,-92.3176,43.213707,-92.080974,42.906732,-92.554464
Clarke,IA,019039,Central Time (US & Canada),41.029,-93.7851,41.16214189999999,-93.556288,40.89667,-94.0148909
Clay,IA,019041,Central Time (US & Canada),43.0826,-95.151,43.2556079,-94.913444,42.909676,-95.388757
Clayton,IA,019043,Central Time (US & Canada),42.8447,-91.3414,42.914882,-91.136439,42.896229,-91.157467
Clinton,IA,019045,Central Time (US & Canada),41.898,-90.532,41.9101329,-90.1534779,41.793942,-90.3449519
Crawford,IA,019047,Central Time (US & Canada),42.0372,-95.3821,42.211408,-95.090851,41.863146,-95.672771
Dallas,IA,019049,Central Time (US & Canada),41.6849,-94.0398,41.237571,-93.2321609,41.21515489999999,-93.2488769
Davis,IA,019051,Central Time (US & Canada),40.7477,-92.4097,40.8997199,-92.17818,40.5908529,-92.639156
Decatur,IA,019053,Central Time (US & Canada),40.7377,-93.7863,40.748022,-93.8234679,40.7374204,-93.8401619
Delaware,IA,019055,Central Time (US & Canada),42.4711,-91.3673,42.477277,-91.326056,42.4656169,-91.351501
Des Moines,IA,019057,Central Time (US & Canada),40.9232,-91.1815,41.6540759,-93.503215,41.479264,-93.709817
Dickinson,IA,019059,Central Time (US & Canada),43.3779,-95.151,43.501196,-94.9137229,43.255054,-95.3880909
Dubuque,IA,019061,Central Time (US & Canada),42.4688,-90.8824,42.558253,-90.6367269,42.437858,-90.7906019
Emmet,IA,019063,Central Time (US & Canada),43.3779,-94.6784,43.50112900000001,-94.442292,43.255005,-94.9148429
Fayette,IA,019065,Central Time (US & Canada),42.8625,-91.8443,42.8546489,-91.7866799,42.8324159,-91.819344
Floyd,IA,019067,Central Time (US & Canada),43.06,-92.789,43.1348709,-92.7321939,43.121195,-92.7472839
Franklin,IA,019069,Central Time (US & Canada),42.7325,-93.2624,40.669066,-91.507071,40.6642639,-91.5163889
Fremont,IA,019071,Central Time (US & Canada),40.7456,-95.6047,41.219822,-92.4225079,41.205248,-92.445421
Greene,IA,019073,Central Time (US & Canada),42.0362,-94.3969,42.907317,-92.792773,42.889024,-92.819186
Grundy,IA,019075,Central Time (US & Canada),42.4019,-92.791,42.55681,-92.5335099,42.2092669,-93.0271159
Guthrie,IA,019077,Central Time (US & Canada),41.6838,-94.501,41.863313,-94.241356,41.5035699,-94.7448759
Hamilton,IA,019079,Central Time (US & Canada),42.3837,-93.7068,41.1791569,-92.898224,41.164105,-92.9134809
Hancock,IA,019081,Central Time (US & Canada),43.0818,-93.7343,41.39968289999999,-95.3531019,41.382259,-95.370744
Hardin,IA,019083,Central Time (US & Canada),42.3838,-93.2404,42.5577,-93.001674,42.208697,-93.4996039
Harrison,IA,019085,Central Time (US & Canada),41.6829,-95.8167,41.8663079,-95.497793,41.5051349,-96.1390119
Henry,IA,019087,Central Time (US & Canada),40.9879,-91.5446,41.163564,-91.370295,40.81246489999999,-91.718853
Howard,IA,019089,Central Time (US & Canada),43.3568,-92.3172,43.5008209,-92.079635,43.212688,-92.554553
Humboldt,IA,019091,Central Time (US & Canada),42.7764,-94.2073,42.746063,-94.2071019,42.698943,-94.247506
Ida,IA,019093,Central Time (US & Canada),42.3868,-95.5136,42.56189089999999,-95.322338,42.210701,-95.7418429
Iowa,IA,019095,Central Time (US & Canada),41.6863,-92.0656,41.863057,-91.8270599,41.509786,-92.300125
Jackson,IA,019097,Central Time (US & Canada),42.1717,-90.5742,42.3823079,-90.1542209,42.032584,-90.8986539
Jasper,IA,019099,Central Time (US & Canada),41.686,-93.0537,41.863105,-92.756508,41.50782400000001,-93.348681
Jefferson,IA,019101,Central Time (US & Canada),41.0318,-91.9489,42.03828600000001,-94.358161,41.992187,-94.415396
Johnson,IA,019103,Central Time (US & Canada),41.6715,-91.5881,41.862091,-91.3658969,41.423178,-91.8341849
Jones,IA,019105,Central Time (US & Canada),42.1212,-91.1314,42.2964549,-90.8980139,41.946079,-91.3658069
Keokuk,IA,019107,Central Time (US & Canada),41.3364,-92.1787,40.440919,-91.372379,40.378264,-91.4360859
Kossuth,IA,019109,Central Time (US & Canada),43.2042,-94.2067,43.500468,-93.970175,42.90776200000001,-94.4432889
Lee,IA,019111,Central Time (US & Canada),40.642,-91.4792,40.8139709,-91.112467,40.375437,-91.718829
Linn,IA,019113,Central Time (US & Canada),42.0789,-91.5989,42.2990629,-91.3632629,41.859836,-91.835262
Louisa,IA,019115,Central Time (US & Canada),41.2185,-91.2597,41.424226,-90.94626,41.07271,-91.486004
Lucas,IA,019117,Central Time (US & Canada),41.0293,-93.3277,41.039505,-93.451599,41.0249339,-93.4703959
Lyon,IA,019119,Central Time (US & Canada),43.3805,-96.2103,43.500515,-95.86041000000002,43.257284,-96.6029219
Madison,IA,019121,Central Time (US & Canada),41.3307,-94.0155,41.5115274,-93.7891959,41.156535,-94.2417179
Mahaska,IA,019123,Central Time (US & Canada),41.3351,-92.6409,41.5095509,-92.410161,41.160851,-92.871456
Marion,IA,019125,Central Time (US & Canada),41.3344,-93.0995,42.0868619,-91.528795,42.0096549,-91.6336989
Marshall,IA,019127,Central Time (US & Canada),42.0358,-92.9988,42.2101399,-92.765768,41.8622669,-93.231972
Mills,IA,019129,Central Time (US & Canada),41.0332,-95.6214,41.160733,-95.38417,40.9010449,-95.8833459
Mitchell,IA,019131,Central Time (US & Canada),43.3564,-92.7891,43.323963,-92.855401,43.31312090000001,-92.8830009
Monona,IA,019133,Central Time (US & Canada),42.0516,-95.96,43.059219,-91.3798499,43.04078690000001,-91.410854
Monroe,IA,019135,Central Time (US & Canada),41.0297,-92.869,41.5299769,-93.092243,41.50828,-93.120679
Montgomery,IA,019137,Central Time (US & Canada),41.0301,-95.1563,,,,
Muscatine,IA,019139,Central Time (US & Canada),41.4839,-91.1127,41.46654789999999,-91.006917,41.35979589999999,-91.1576499
O'Brien,IA,019141,Central Time (US & Canada),43.0838,-95.625,43.258479,-95.387745,42.90909389999999,-95.862431
Osceola,IA,019143,Central Time (US & Canada),43.3785,-95.6238,41.0671279,-93.7405079,41.0148359,-93.817447
Page,IA,019145,Central Time (US & Canada),40.7391,-95.1502,40.90155,-94.9131249,40.575068,-95.3854829
Palo Alto,IA,019147,Central Time (US & Canada),43.082,-94.6782,43.255511,-94.442567,42.908007,-94.913923
Plymouth,IA,019149,Central Time (US & Canada),42.7378,-96.2142,43.252722,-93.11819,43.239998,-93.1283349
Pocahontas,IA,019151,Central Time (US & Canada),42.7341,-94.6789,42.748348,-94.6393169,42.725136,-94.69039800000002
Polk,IA,019153,Central Time (US & Canada),41.6855,-93.5734,41.8634689,-93.328407,41.48177,-93.8157839
Pottawattamie,IA,019155,Central Time (US & Canada),41.3364,-95.5423,41.506893,-95.154614,41.159236,-96.019543
Poweshiek,IA,019157,Central Time (US & Canada),41.6864,-92.5314,41.8627789,-92.297488,41.508705,-92.766769
Ringgold,IA,019159,Central Time (US & Canada),40.7352,-94.244,40.8995029,-94.014759,40.570825,-94.471696
Sac,IA,019161,Central Time (US & Canada),42.3862,-95.1055,42.561743,-94.8566419,42.2096919,-95.3881809
Scott,IA,019163,Central Time (US & Canada),41.6371,-90.6232,41.776437,-90.3126669,41.449632,-90.8998529
Shelby,IA,019165,Central Time (US & Canada),41.6851,-95.3103,41.520485,-95.4413419,41.498691,-95.460809
Sioux,IA,019167,Central Time (US & Canada),43.0826,-96.1779,43.260151,-95.8593159,42.90877589999999,-96.5711939
Story,IA,019169,Central Time (US & Canada),42.0362,-93.4651,42.2093969,-93.231443,41.862572,-93.6987669
Tama,IA,019171,Central Time (US & Canada),42.0798,-92.5326,41.978503,-92.543015,41.9492539,-92.5915639
Taylor,IA,019173,Central Time (US & Canada),40.7374,-94.6965,40.900785,-94.4707789,40.570706,-94.92893800000002
Union,IA,019175,Central Time (US & Canada),41.0277,-94.2424,42.248787,-93.0552309,42.23797,-93.069841
Van Buren,IA,019177,Central Time (US & Canada),40.7532,-91.95,40.901362,-91.716432,40.5985299,-92.1797799
Wapello,IA,019179,Central Time (US & Canada),41.0306,-92.4095,41.1895,-91.173306,41.16668,-91.2016539
Warren,IA,019181,Central Time (US & Canada),41.3343,-93.5614,41.512094,-93.3278859,41.1605009,-93.7908279
Washington,IA,019183,Central Time (US & Canada),41.3356,-91.7179,41.3163429,-91.664138,41.27965289999999,-91.7225869
Wayne,IA,019185,Central Time (US & Canada),40.7395,-93.3274,40.898454,-93.0972369,40.57994,-93.5569639
Webster,IA,019187,Central Time (US & Canada),42.4278,-94.1818,41.442361,-92.162093,41.4350309,-92.181502
Winnebago,IA,019189,Central Time (US & Canada),43.3775,-93.7342,43.4998859,-93.497326,43.255009,-93.9707799
Winneshiek,IA,019191,Central Time (US & Canada),43.2906,-91.8437,43.500895,-91.6039919,43.08165289999999,-92.081272
Woodbury,IA,019193,Central Time (US & Canada),42.3897,-96.0449,42.5620959,-95.669141,42.211261,-96.4989969
Worth,IA,019195,Central Time (US & Canada),43.3774,-93.2609,43.499733,-93.0239079,43.255024,-93.497821
Wright,IA,019197,Central Time (US & Canada),42.7331,-93.7352,,,,
Allen,KS,020001,Central Time (US & Canada),37.8858,-95.3014,38.65882089999999,-96.1639819,38.65071289999999,-96.174722
Anderson,KS,020003,Central Time (US & Canada),38.2143,-95.2933,38.390464,-95.0648949,38.037692,-95.51897
Atchison,KS,020005,Central Time (US & Canada),39.532,-95.3129,39.594829,-95.096904,39.527736,-95.252471
Barber,KS,020007,Central Time (US & Canada),37.2289,-98.6848,37.471114,-98.347149,36.997969,-99.012598
Barton,KS,020009,Central Time (US & Canada),38.479,-98.7565,38.696916,-98.479507,38.26079,-99.03343
Bourbon,KS,020011,Central Time (US & Canada),37.8552,-94.8493,38.037706,-94.6140109,37.673105,-95.088111
Brown,KS,020013,Central Time (US & Canada),39.8266,-95.5642,40.0004739,-95.339477,39.6527509,-95.789051
Butler,KS,020015,Central Time (US & Canada),37.7812,-96.8391,38.0877039,-96.5227819,37.4754,-97.1534499
Chase,KS,020017,Central Time (US & Canada),38.302,-96.594,38.361391,-98.339946,38.3514849,-98.3543239
Chautauqua,KS,020019,Central Time (US & Canada),37.1501,-96.2453,37.031079,-96.17242,37.018031,-96.1829039
Cherokee,KS,020021,Central Time (US & Canada),37.1693,-94.8462,37.352346,-94.804976,37.3393869,-94.833381
Cheyenne,KS,020023,Central Time (US & Canada),39.7858,-101.7312,40.004542,-101.4098379,39.56817789999999,-102.0517689
Clark,KS,020025,Central Time (US & Canada),37.2355,-99.8203,37.4748359,-99.5411139,36.9995289,-100.107397
Clay,KS,020027,Central Time (US & Canada),39.3497,-97.1651,39.567025,-96.958632,39.1319609,-97.371225
Cloud,KS,020029,Central Time (US & Canada),39.4804,-97.6495,39.654043,-97.3683739,39.306011,-97.9319979
Coffey,KS,020031,Central Time (US & Canada),38.237,-95.7342,38.434532,-95.507474,38.0379379,-95.9593019
Comanche,KS,020033,Central Time (US & Canada),37.1913,-99.2719,37.384296,-99.0003009,36.999221,-99.54479200000002
Cowley,KS,020035,Central Time (US & Canada),37.2377,-96.8375,37.47669,-96.5247,36.9987099,-97.153331
Crawford,KS,020037,Central Time (US & Canada),37.5073,-94.8518,,,,
Decatur,KS,020039,Central Time (US & Canada),39.7847,-100.4599,40.002269,-100.177794,39.5668859,-100.741158
Dickinson,KS,020041,Central Time (US & Canada),38.8664,-97.1527,39.133513,-96.890019,38.6089739,-97.381215
Doniphan,KS,020043,Central Time (US & Canada),39.7885,-95.147,,,,
Douglas,KS,020045,Central Time (US & Canada),38.8845,-95.2924,39.069783,-95.055848,38.7382719,-95.5019
Edwards,KS,020047,Central Time (US & Canada),37.8876,-99.312,38.08820000000001,-99.0133029,37.73297,-99.5705759
Elk,KS,020049,Central Time (US & Canada),37.4537,-96.2441,37.607261,-95.9609969,37.2992319,-96.5263279
Ellis,KS,020051,Central Time (US & Canada),38.9148,-99.3173,38.9496449,-99.548169,38.9209959,-99.573213
Ellsworth,KS,020053,Central Time (US & Canada),38.6966,-98.2048,38.753355,-98.2108509,38.7132499,-98.243849
Finney,KS,020055,Central Time (US & Canada),38.0444,-100.7369,38.26520190000001,-100.225031,37.736275,-101.103778
Ford,KS,020057,Central Time (US & Canada),37.6917,-99.8879,37.642879,-99.748983,37.630283,-99.7584469
Franklin,KS,020059,Central Time (US & Canada),38.5646,-95.2859,38.738915,-95.056327,38.389449,-95.5090139
Geary,KS,020061,Central Time (US & Canada),39.0024,-96.7526,39.2201559,-96.501098,38.869704,-96.9636879
Gove,KS,020063,Central Time (US & Canada),38.9161,-100.4829,38.9631909,-100.482408,38.955661,-100.501042
Graham,KS,020065,Central Time (US & Canada),39.3497,-99.8833,39.567448,-99.6016229,39.1316769,-100.164382
Grant,KS,020067,Central Time (US & Canada),37.5622,-101.308,37.73647589999999,-101.089363,37.387719,-101.52707
Gray,KS,020069,Central Time (US & Canada),37.7382,-100.4378,38.002533,-100.214637,37.4746079,-100.665172
Greeley,KS,020071,Mountain Time (US & Canada),38.4805,-101.806,38.3754069,-95.121363,38.360729,-95.131424
Greenwood,KS,020073,Central Time (US & Canada),37.8778,-96.2327,38.1736634,-95.958134,37.603761,-96.5259849
Hamilton,KS,020075,Mountain Time (US & Canada),37.9991,-101.7913,37.98438,-96.157428,37.976599,-96.170204
Harper,KS,020077,Central Time (US & Canada),37.1916,-98.0755,37.297713,-98.0080139,37.272734,-98.048104
Harvey,KS,020079,Central Time (US & Canada),38.0432,-97.4274,38.175081,-97.1524759,37.912002,-97.70249
Haskell,KS,020081,Central Time (US & Canada),37.5623,-100.8712,37.73679,-100.652224,37.387149,-101.090526
Hodgeman,KS,020083,Central Time (US & Canada),38.0875,-99.8979,38.262239,-99.569508,37.91269,-100.227137
Jackson,KS,020085,Central Time (US & Canada),39.417,-95.7937,39.653222,-95.5641519,39.21608090000001,-96.036181
Jefferson,KS,020087,Central Time (US & Canada),39.2358,-95.3834,39.420944,-95.1798269,39.031552,-95.599144
Jewell,KS,020089,Central Time (US & Canada),39.7847,-98.2184,39.67711389999999,-98.1450519,39.666778,-98.159162
Johnson,KS,020091,Central Time (US & Canada),38.8838,-94.8223,39.061388,-94.607382,38.738078,-95.0564969
Kearny,KS,020093,Central Time (US & Canada),38.0002,-101.3199,38.2645569,-101.089667,37.7361,-101.542757
Kingman,KS,020095,Central Time (US & Canada),37.5589,-98.1364,37.673753,-98.0910349,37.6224459,-98.177548
Kiowa,KS,020097,Central Time (US & Canada),37.5582,-99.286,37.029804,-98.4760879,37.008396,-98.494474
Labette,KS,020099,Central Time (US & Canada),37.1913,-95.2976,37.23404,-95.1763879,37.22647,-95.190708
Lane,KS,020101,Central Time (US & Canada),38.4814,-100.4664,38.446228,-95.0748639,38.43267000000001,-95.087566
Leavenworth,KS,020103,Central Time (US & Canada),39.1993,-95.0379,39.392452,-94.8807389,39.2307009,-94.964997
Lincoln,KS,020105,Central Time (US & Canada),39.0454,-98.2078,39.051902,-98.13323,39.032303,-98.159151
Linn,KS,020107,Central Time (US & Canada),38.2123,-94.8429,39.685021,-97.07789,39.67478089999999,-97.095433
Logan,KS,020109,Central Time (US & Canada),38.9173,-101.1485,39.668931,-99.55308,39.654317,-99.5813819
Lyon,KS,020111,Central Time (US & Canada),38.4563,-96.1527,38.73949289999999,-95.945661,38.170919,-96.357097
McPherson,KS,020113,Central Time (US & Canada),38.3916,-97.648,38.400107,-97.6147199,38.340764,-97.6986139
Marion,KS,020115,Central Time (US & Canada),38.3588,-97.0969,38.38427,-96.9850759,38.333686,-97.0332959
Marshall,KS,020117,Central Time (US & Canada),39.7836,-96.5229,40.00154089999999,-96.238969,39.565925,-96.806748
Meade,KS,020119,Central Time (US & Canada),37.2382,-100.3662,37.293997,-100.326297,37.27466,-100.351809
Miami,KS,020121,Central Time (US & Canada),38.5636,-94.8381,38.738636,-94.6090799,38.388244,-95.066041
Mitchell,KS,020123,Central Time (US & Canada),39.3933,-98.2095,39.567513,-97.9286549,39.2187569,-98.4901709
Montgomery,KS,020125,Central Time (US & Canada),37.1925,-95.7429,37.386668,-95.517967,36.99907400000001,-95.964748
Morris,KS,020127,Central Time (US & Canada),38.6875,-96.6499,38.8703519,-96.35261,38.521538,-96.9339239
Morton,KS,020129,Central Time (US & Canada),37.1914,-101.7993,37.38932,-101.555246,36.993016,-102.04218
Nemaha,KS,020131,Central Time (US & Canada),39.7835,-96.0141,40.0009299,-95.788071,39.565883,-96.239772
Neosho,KS,020133,Central Time (US & Canada),37.5586,-95.3068,37.7342019,-95.087632,37.3837199,-95.5261359
Ness,KS,020135,Central Time (US & Canada),38.4795,-99.9162,38.69818,-99.5842069,38.26145500000001,-100.248657
Norton,KS,020137,Central Time (US & Canada),39.7844,-99.9034,39.856795,-99.8794279,39.819866,-99.907585
Osage,KS,020139,Central Time (US & Canada),38.6524,-95.7269,38.870056,-95.5004529,38.433544,-95.950282
